{
    "type": "FeatureCollection",
    "features": [{
            "type": "Feature",
            "geometry": {
                "type": "Point",
                "coordinates": [144.962422614541, -37.8118847831837]
            },
            "properties": {
                "theme": "Place of Worship",
                "sub_theme": "Church",
                "feature_name": "St Francis Church"
            }
        }, {
            "type": "Feature",
            "geometry": {
                "type": "Point",
                "coordinates": [144.952468571683, -37.8101281201969]
            },
            "properties": {
                "theme": "Place of Worship",
                "sub_theme": "Church",
                "feature_name": "St James Church"
            }
        }, {
            "type": "Feature",
            "geometry": {
                "type": "Point",
                "coordinates": [144.953761537074, -37.8031663672997]
            },
            "properties": {
                "theme": "Place of Worship",
                "sub_theme": "Church",
                "feature_name": "St Mary's Anglican Church"
            }
        }, {
            "type": "Feature",
            "geometry": {
                "type": "Point",
                "coordinates": [144.96855105335, -37.8145687802664]
            },
            "properties": {
                "theme": "Place of Worship",
                "sub_theme": "Church",
                "feature_name": "Scots Church"
            }
        }, {
            "type": "Feature",
            "geometry": {
                "type": "Point",
                "coordinates": [144.969174036096, -37.8143851324913]
            },
            "properties": {
                "theme": "Place of Worship",
                "sub_theme": "Church",
                "feature_name": "St Michael's Uniting Church"
            }
        }, {
            "type": "Feature",
            "geometry": {
                "type": "Point",
                "coordinates": [144.978259089269, -37.8088064667555]
            },
            "properties": {
                "theme": "Place of Worship",
                "sub_theme": "Church",
                "feature_name": "Greek Orthodox Church"
            }
        }, {
            "type": "Feature",
            "geometry": {
                "type": "Point",
                "coordinates": [144.947671538375, -37.8035538471344]
            },
            "properties": {
                "theme": "Place of Worship",
                "sub_theme": "Church",
                "feature_name": "North Melbourne Uniting"
            }
        }, {
            "type": "Feature",
            "geometry": {
                "type": "Point",
                "coordinates": [144.98562699348, -37.8407473645397]
            },
            "properties": {
                "theme": "Place of Worship",
                "sub_theme": "Church",
                "feature_name": "South Yarra Presbyterian Church"
            }
        }, {
            "type": "Feature",
            "geometry": {
                "type": "Point",
                "coordinates": [144.97422190954, -37.809113728917]
            },
            "properties": {
                "theme": "Place of Worship",
                "sub_theme": "Synagogue",
                "feature_name": "East Melbourne Synagogue"
            }
        }, {
            "type": "Feature",
            "geometry": {
                "type": "Point",
                "coordinates": [144.91753432375, -37.8137384362671]
            },
            "properties": {
                "theme": "Transport",
                "sub_theme": "Transport Terminal",
                "feature_name": "Port of Melbourne"
            }
        }, {
            "type": "Feature",
            "geometry": {
                "type": "Point",
                "coordinates": [144.961967841559, -37.7840864379557]
            },
            "properties": {
                "theme": "Leisure\/Recreation",
                "sub_theme": "Major Sports & Recreation Facility",
                "feature_name": "Carlton Football Club"
            }
        }, {
            "type": "Feature",
            "geometry": {
                "type": "Point",
                "coordinates": [144.969406272035, -37.8020953835112]
            },
            "properties": {
                "theme": "Education Centre",
                "sub_theme": "Primary Schools",
                "feature_name": "Carlton Gardens Primary School"
            }
        }, {
            "type": "Feature",
            "geometry": {
                "type": "Point",
                "coordinates": [144.971997551189, -37.8017690847403]
            },
            "properties": {
                "theme": "Leisure\/Recreation",
                "sub_theme": "Informal Outdoor Facility (Park\/Garden\/Reserve)",
                "feature_name": "Carlton Gardens North"
            }
        }, {
            "type": "Feature",
            "geometry": {
                "type": "Point",
                "coordinates": [144.974107925144, -37.8255239795833]
            },
            "properties": {
                "theme": "Leisure\/Recreation",
                "sub_theme": "Informal Outdoor Facility (Park\/Garden\/Reserve)",
                "feature_name": "Kings Domain"
            }
        }, {
            "type": "Feature",
            "geometry": {
                "type": "Point",
                "coordinates": [144.976285045233, -37.8342561018747]
            },
            "properties": {
                "theme": "Education Centre",
                "sub_theme": "Secondary Schools",
                "feature_name": "Melbourne Grammar School"
            }
        }, {
            "type": "Feature",
            "geometry": {
                "type": "Point",
                "coordinates": [144.968836241692, -37.8216684581887]
            },
            "properties": {
                "theme": "Place Of Assembly",
                "sub_theme": "Theatre Live",
                "feature_name": "FairFax Studio"
            }
        }, {
            "type": "Feature",
            "geometry": {
                "type": "Point",
                "coordinates": [144.912142987372, -37.7908082646624]
            },
            "properties": {
                "theme": "Leisure\/Recreation",
                "sub_theme": "Major Sports & Recreation Facility",
                "feature_name": "Flemington Racecourse"
            }
        }, {
            "type": "Feature",
            "geometry": {
                "type": "Point",
                "coordinates": [144.975952335785, -37.8143993575938]
            },
            "properties": {
                "theme": "Leisure\/Recreation",
                "sub_theme": "Informal Outdoor Facility (Park\/Garden\/Reserve)",
                "feature_name": "Treasury Gardens"
            }
        }, {
            "type": "Feature",
            "geometry": {
                "type": "Point",
                "coordinates": [144.975236759799, -37.8129178793082]
            },
            "properties": {
                "theme": "Mixed Use",
                "sub_theme": "Retail\/Office",
                "feature_name": "Treasury Reserve"
            }
        }, {
            "type": "Feature",
            "geometry": {
                "type": "Point",
                "coordinates": [144.982336768182, -37.8093444587231]
            },
            "properties": {
                "theme": "Health Services",
                "sub_theme": "Private Hospital",
                "feature_name": "Epworth Freemasons Hospital : Medical Centre"
            }
        }, {
            "type": "Feature",
            "geometry": {
                "type": "Point",
                "coordinates": [144.956846193891, -37.8136147671606]
            },
            "properties": {
                "theme": "Community Use",
                "sub_theme": "Government Building",
                "feature_name": "Melbourne Magistrates Court"
            }
        }, {
            "type": "Feature",
            "geometry": {
                "type": "Point",
                "coordinates": [144.956318211113, -37.8122356514626]
            },
            "properties": {
                "theme": "Transport",
                "sub_theme": "Railway Station",
                "feature_name": "Flagstaff Railway Station"
            }
        }, {
            "type": "Feature",
            "geometry": {
                "type": "Point",
                "coordinates": [144.983402879078, -37.8194921618419]
            },
            "properties": {
                "theme": "Leisure\/Recreation",
                "sub_theme": "Major Sports & Recreation Facility",
                "feature_name": "Melbourne Cricket Ground (MCG)"
            }
        }, {
            "type": "Feature",
            "geometry": {
                "type": "Point",
                "coordinates": [144.913822928701, -37.8310746380616]
            },
            "properties": {
                "theme": "Vacant Land",
                "sub_theme": "Vacant Land - Undeveloped Site",
                "feature_name": "Melbourne International Karting Complex"
            }
        }, {
            "type": "Feature",
            "geometry": {
                "type": "Point",
                "coordinates": [144.965989052839, -37.8202245786597]
            },
            "properties": {
                "theme": "Mixed Use",
                "sub_theme": "Retail\/Office\/Carpark",
                "feature_name": "Southgate Arts and Leisure Precinct"
            }
        }, {
            "type": "Feature",
            "geometry": {
                "type": "Point",
                "coordinates": [144.967252924593, -37.8266045432686]
            },
            "properties": {
                "theme": "Place Of Assembly",
                "sub_theme": "Art Gallery\/Museum",
                "feature_name": "Australian Centre for Contemporary Art"
            }
        }, {
            "type": "Feature",
            "geometry": {
                "type": "Point",
                "coordinates": [144.975901529712, -37.8101140950474]
            },
            "properties": {
                "theme": "Place of Worship",
                "sub_theme": "Church",
                "feature_name": "St Patricks Cathedral"
            }
        }, {
            "type": "Feature",
            "geometry": {
                "type": "Point",
                "coordinates": [144.97372641185, -37.811246655376]
            },
            "properties": {
                "theme": "Office",
                "sub_theme": "Office",
                "feature_name": "Parliament House"
            }
        }, {
            "type": "Feature",
            "geometry": {
                "type": "Point",
                "coordinates": [144.957055454136, -37.8121838748712]
            },
            "properties": {
                "theme": "Office",
                "sub_theme": "Office",
                "feature_name": "Former Royal Mint"
            }
        }, {
            "type": "Feature",
            "geometry": {
                "type": "Point",
                "coordinates": [144.971049530478, -37.8216381244891]
            },
            "properties": {
                "theme": "Leisure\/Recreation",
                "sub_theme": "Informal Outdoor Facility (Park\/Garden\/Reserve)",
                "feature_name": "Queen Victoria Gardens"
            }
        }, {
            "type": "Feature",
            "geometry": {
                "type": "Point",
                "coordinates": [144.968740597156, -37.8176921210305]
            },
            "properties": {
                "theme": "Office",
                "sub_theme": "Office",
                "feature_name": "SBS (Special Broadcasting Service)"
            }
        }, {
            "type": "Feature",
            "geometry": {
                "type": "Point",
                "coordinates": [144.968963600783, -37.8178516571684]
            },
            "properties": {
                "theme": "Leisure\/Recreation",
                "sub_theme": "Informal Outdoor Facility (Park\/Garden\/Reserve)",
                "feature_name": "Federation Square"
            }
        }, {
            "type": "Feature",
            "geometry": {
                "type": "Point",
                "coordinates": [144.941617889032, -37.8152178789077]
            },
            "properties": {
                "theme": "Leisure\/Recreation",
                "sub_theme": "Informal Outdoor Facility (Park\/Garden\/Reserve)",
                "feature_name": "New Quay"
            }
        }, {
            "type": "Feature",
            "geometry": {
                "type": "Point",
                "coordinates": [144.935655305362, -37.8142318521296]
            },
            "properties": {
                "theme": "Purpose Built",
                "sub_theme": "Film & RV Studio",
                "feature_name": "Central City Studios"
            }
        }, {
            "type": "Feature",
            "geometry": {
                "type": "Point",
                "coordinates": [144.942283726231, -37.8152925454954]
            },
            "properties": {
                "theme": "Transport",
                "sub_theme": "Marina",
                "feature_name": "New Quay Marina"
            }
        }, {
            "type": "Feature",
            "geometry": {
                "type": "Point",
                "coordinates": [144.922972125346, -37.7878473341234]
            },
            "properties": {
                "theme": "Leisure\/Recreation",
                "sub_theme": "Informal Outdoor Facility (Park\/Garden\/Reserve)",
                "feature_name": "Newmarket Reserve"
            }
        }, {
            "type": "Feature",
            "geometry": {
                "type": "Point",
                "coordinates": [144.954897253856, -37.7988892460088]
            },
            "properties": {
                "theme": "Health Services",
                "sub_theme": "Public Hospital",
                "feature_name": "Royal Womens Hospital"
            }
        }, {
            "type": "Feature",
            "geometry": {
                "type": "Point",
                "coordinates": [144.951254841448, -37.8224995970811]
            },
            "properties": {
                "theme": "Specialist Residential Accommodation",
                "sub_theme": "Hostel",
                "feature_name": "The Mission To Seafarers Victoria"
            }
        }, {
            "type": "Feature",
            "geometry": {
                "type": "Point",
                "coordinates": [144.936833674975, -37.8116945351989]
            },
            "properties": {
                "theme": "Leisure\/Recreation",
                "sub_theme": "Outdoor Recreation Facility (Zoo, Golf Course)",
                "feature_name": "Wonderland Park"
            }
        }, {
            "type": "Feature",
            "geometry": {
                "type": "Point",
                "coordinates": [144.978487173787, -37.8220456119807]
            },
            "properties": {
                "theme": "Leisure\/Recreation",
                "sub_theme": "Major Sports & Recreation Facility",
                "feature_name": "Rod Laver Arena"
            }
        }, {
            "type": "Feature",
            "geometry": {
                "type": "Point",
                "coordinates": [144.978735802793, -37.8209085970021]
            },
            "properties": {
                "theme": "Leisure\/Recreation",
                "sub_theme": "Major Sports & Recreation Facility",
                "feature_name": "Melbourne Park"
            }
        }, {
            "type": "Feature",
            "geometry": {
                "type": "Point",
                "coordinates": [144.981834802535, -37.823110002667]
            },
            "properties": {
                "theme": "Leisure\/Recreation",
                "sub_theme": "Major Sports & Recreation Facility",
                "feature_name": "Hisense Arena"
            }
        }, {
            "type": "Feature",
            "geometry": {
                "type": "Point",
                "coordinates": [144.971690718887, -37.8035518129299]
            },
            "properties": {
                "theme": "Place Of Assembly",
                "sub_theme": "Art Gallery\/Museum",
                "feature_name": "Melbourne Museum"
            }
        }, {
            "type": "Feature",
            "geometry": {
                "type": "Point",
                "coordinates": [144.967450979234, -37.8239733704282]
            },
            "properties": {
                "theme": "Community Use",
                "sub_theme": "Public Buildings",
                "feature_name": "Elisabeth Murdoch Hall"
            }
        }, {
            "type": "Feature",
            "geometry": {
                "type": "Point",
                "coordinates": [144.967682729667, -37.8238327885805]
            },
            "properties": {
                "theme": "Community Use",
                "sub_theme": "Public Buildings",
                "feature_name": "Melbourne Recital Centre"
            }
        }, {
            "type": "Feature",
            "geometry": {
                "type": "Point",
                "coordinates": [144.967992144257, -37.8199901009015]
            },
            "properties": {
                "theme": "Place Of Assembly",
                "sub_theme": "Theatre Live",
                "feature_name": "Hamer Hall"
            }
        }, {
            "type": "Feature",
            "geometry": {
                "type": "Point",
                "coordinates": [144.923837074813, -37.7982358832177]
            },
            "properties": {
                "theme": "Leisure\/Recreation",
                "sub_theme": "Informal Outdoor Facility (Park\/Garden\/Reserve)",
                "feature_name": "J.J Holland Park"
            }
        }, {
            "type": "Feature",
            "geometry": {
                "type": "Point",
                "coordinates": [144.925837749713, -37.7997270537735]
            },
            "properties": {
                "theme": "Transport",
                "sub_theme": "Railway Station",
                "feature_name": "South Kensington Railway Station"
            }
        }, {
            "type": "Feature",
            "geometry": {
                "type": "Point",
                "coordinates": [144.950048264678, -37.7942060847278]
            },
            "properties": {
                "theme": "Health Services",
                "sub_theme": "Public Hospital",
                "feature_name": "Royal Childrens Hospital"
            }
        }, {
            "type": "Feature",
            "geometry": {
                "type": "Point",
                "coordinates": [144.951667833921, -37.7812684282825]
            },
            "properties": {
                "theme": "Transport",
                "sub_theme": "Railway Station",
                "feature_name": "Royal Park Railway Station"
            }
        }, {
            "type": "Feature",
            "geometry": {
                "type": "Point",
                "coordinates": [144.984669809381, -37.8189544909462]
            },
            "properties": {
                "theme": "Place Of Assembly",
                "sub_theme": "Art Gallery\/Museum",
                "feature_name": "National Sports Museum"
            }
        }, {
            "type": "Feature",
            "geometry": {
                "type": "Point",
                "coordinates": [144.964675254819, -37.8244982228756]
            },
            "properties": {
                "theme": "Office",
                "sub_theme": "Office",
                "feature_name": "State Coroners Office"
            }
        }, {
            "type": "Feature",
            "geometry": {
                "type": "Point",
                "coordinates": [144.9561186805, -37.8116384403974]
            },
            "properties": {
                "theme": "Transport",
                "sub_theme": "Railway Station",
                "feature_name": "Flagstaff Railway Station"
            }
        }, {
            "type": "Feature",
            "geometry": {
                "type": "Point",
                "coordinates": [144.96169061383, -37.8105992402369]
            },
            "properties": {
                "theme": "Transport",
                "sub_theme": "Railway Station",
                "feature_name": "Melbourne Central Railway Station"
            }
        }, {
            "type": "Feature",
            "geometry": {
                "type": "Point",
                "coordinates": [144.963100728702, -37.8108930047401]
            },
            "properties": {
                "theme": "Transport",
                "sub_theme": "Railway Station",
                "feature_name": "Melbourne Central Railway Station"
            }
        }, {
            "type": "Feature",
            "geometry": {
                "type": "Point",
                "coordinates": [144.96732254212, -37.814954347831]
            },
            "properties": {
                "theme": "Place Of Assembly",
                "sub_theme": "Theatre Live",
                "feature_name": "Athanaeum Theatre"
            }
        }, {
            "type": "Feature",
            "geometry": {
                "type": "Point",
                "coordinates": [144.915607065132, -37.7948375315825]
            },
            "properties": {
                "theme": "Leisure\/Recreation",
                "sub_theme": "Outdoor Recreation Facility (Zoo, Golf Course)",
                "feature_name": "Riverside Park"
            }
        }, {
            "type": "Feature",
            "geometry": {
                "type": "Point",
                "coordinates": [144.954696055235, -37.8111222889277]
            },
            "properties": {
                "theme": "Leisure\/Recreation",
                "sub_theme": "Informal Outdoor Facility (Park\/Garden\/Reserve)",
                "feature_name": "Flagstaff Gardens"
            }
        }, {
            "type": "Feature",
            "geometry": {
                "type": "Point",
                "coordinates": [144.951065772876, -37.7986737155551]
            },
            "properties": {
                "theme": "Education Centre",
                "sub_theme": "Primary Schools",
                "feature_name": "North Melbourne Primary School"
            }
        }, {
            "type": "Feature",
            "geometry": {
                "type": "Point",
                "coordinates": [144.969520183129, -37.8109975612842]
            },
            "properties": {
                "theme": "Place Of Assembly",
                "sub_theme": "Theatre Live",
                "feature_name": "Her Majesty's Theatre"
            }
        }, {
            "type": "Feature",
            "geometry": {
                "type": "Point",
                "coordinates": [144.981625667877, -37.8413996708186]
            },
            "properties": {
                "theme": "Leisure\/Recreation",
                "sub_theme": "Informal Outdoor Facility (Park\/Garden\/Reserve)",
                "feature_name": "Fawkner Park"
            }
        }, {
            "type": "Feature",
            "geometry": {
                "type": "Point",
                "coordinates": [144.980455714669, -37.8129616331579]
            },
            "properties": {
                "theme": "Leisure\/Recreation",
                "sub_theme": "Informal Outdoor Facility (Park\/Garden\/Reserve)",
                "feature_name": "Fitzroy Gardens"
            }
        }, {
            "type": "Feature",
            "geometry": {
                "type": "Point",
                "coordinates": [144.980554992725, -37.8145407488014]
            },
            "properties": {
                "theme": "Place Of Assembly",
                "sub_theme": "Art Gallery\/Museum",
                "feature_name": "Sinclair's Cottage"
            }
        }, {
            "type": "Feature",
            "geometry": {
                "type": "Point",
                "coordinates": [144.953780325865, -37.7978743305343]
            },
            "properties": {
                "theme": "Education Centre",
                "sub_theme": "Tertiary (University)",
                "feature_name": "BIO 21 Institute"
            }
        }, {
            "type": "Feature",
            "geometry": {
                "type": "Point",
                "coordinates": [144.959276859602, -37.820210269629]
            },
            "properties": {
                "theme": "Leisure\/Recreation",
                "sub_theme": "Informal Outdoor Facility (Park\/Garden\/Reserve)",
                "feature_name": "Enterprize Park"
            }
        }, {
            "type": "Feature",
            "geometry": {
                "type": "Point",
                "coordinates": [144.967064817875, -37.8179063007545]
            },
            "properties": {
                "theme": "Transport",
                "sub_theme": "Railway Station",
                "feature_name": "Flinders Street Railway Station"
            }
        }, {
            "type": "Feature",
            "geometry": {
                "type": "Point",
                "coordinates": [144.975247619376, -37.8092318636838]
            },
            "properties": {
                "theme": "Community Use",
                "sub_theme": "Fire Station",
                "feature_name": "Metropolitan Fire Brigade (MFB)"
            }
        }, {
            "type": "Feature",
            "geometry": {
                "type": "Point",
                "coordinates": [144.956389746765, -37.7993071664096]
            },
            "properties": {
                "theme": "Health Services",
                "sub_theme": "Public Hospital",
                "feature_name": "Royal Melbourne Hospital"
            }
        }, {
            "type": "Feature",
            "geometry": {
                "type": "Point",
                "coordinates": [144.954027907736, -37.8133854259085]
            },
            "properties": {
                "theme": "Place Of Assembly",
                "sub_theme": "Art Gallery\/Museum",
                "feature_name": "Koorie Heritage Trust Inc"
            }
        }, {
            "type": "Feature",
            "geometry": {
                "type": "Point",
                "coordinates": [144.955823833257, -37.8123961677596]
            },
            "properties": {
                "theme": "Community Use",
                "sub_theme": "Public Buildings",
                "feature_name": "Commonwealth Law Courts"
            }
        }, {
            "type": "Feature",
            "geometry": {
                "type": "Point",
                "coordinates": [144.964452974798, -37.8080795360545]
            },
            "properties": {
                "theme": "Education Centre",
                "sub_theme": "Tertiary (University)",
                "feature_name": "RMIT University"
            }
        }, {
            "type": "Feature",
            "geometry": {
                "type": "Point",
                "coordinates": [144.971514146104, -37.7983318676737]
            },
            "properties": {
                "theme": "Leisure\/Recreation",
                "sub_theme": "Informal Outdoor Facility (Park\/Garden\/Reserve)",
                "feature_name": "Macarthur Square"
            }
        }, {
            "type": "Feature",
            "geometry": {
                "type": "Point",
                "coordinates": [144.963189789721, -37.8071585350561]
            },
            "properties": {
                "theme": "Leisure\/Recreation",
                "sub_theme": "Major Sports & Recreation Facility",
                "feature_name": "City Baths"
            }
        }, {
            "type": "Feature",
            "geometry": {
                "type": "Point",
                "coordinates": [144.908824792698, -37.8314918578874]
            },
            "properties": {
                "theme": "Leisure\/Recreation",
                "sub_theme": "Informal Outdoor Facility (Park\/Garden\/Reserve)",
                "feature_name": "Westgate Park"
            }
        }, {
            "type": "Feature",
            "geometry": {
                "type": "Point",
                "coordinates": [144.942429848025, -37.8073823625058]
            },
            "properties": {
                "theme": "Transport",
                "sub_theme": "Railway Station",
                "feature_name": "North Melbourne Railway Station"
            }
        }, {
            "type": "Feature",
            "geometry": {
                "type": "Point",
                "coordinates": [144.979471339826, -37.8144604899837]
            },
            "properties": {
                "theme": "Place Of Assembly",
                "sub_theme": "Art Gallery\/Museum",
                "feature_name": "Cooks' Cottage"
            }
        }, {
            "type": "Feature",
            "geometry": {
                "type": "Point",
                "coordinates": [144.971521914952, -37.80460262432]
            },
            "properties": {
                "theme": "Place Of Assembly",
                "sub_theme": "Art Gallery\/Museum",
                "feature_name": "Royal Exhibition Building"
            }
        }, {
            "type": "Feature",
            "geometry": {
                "type": "Point",
                "coordinates": [144.958298873269, -37.8125077646598]
            },
            "properties": {
                "theme": "Community Use",
                "sub_theme": "Public Buildings",
                "feature_name": "Melbourne Childrens Court"
            }
        }, {
            "type": "Feature",
            "geometry": {
                "type": "Point",
                "coordinates": [144.947496254547, -37.8161760471742]
            },
            "properties": {
                "theme": "Leisure\/Recreation",
                "sub_theme": "Major Sports & Recreation Facility",
                "feature_name": "Etihad Stadium"
            }
        }, {
            "type": "Feature",
            "geometry": {
                "type": "Point",
                "coordinates": [144.964622218598, -37.8216187583314]
            },
            "properties": {
                "theme": "Leisure\/Recreation",
                "sub_theme": "Observation Tower\/Wheel",
                "feature_name": "Eureka Skydeck 88"
            }
        }, {
            "type": "Feature",
            "geometry": {
                "type": "Point",
                "coordinates": [144.957734246387, -37.8132011619962]
            },
            "properties": {
                "theme": "Community Use",
                "sub_theme": "Public Buildings",
                "feature_name": "County Court Melbourne"
            }
        }, {
            "type": "Feature",
            "geometry": {
                "type": "Point",
                "coordinates": [144.977400949063, -37.8114766732026]
            },
            "properties": {
                "theme": "Health Services",
                "sub_theme": "Public Hospital",
                "feature_name": "Peter Maccallum Cancer Institute"
            }
        }, {
            "type": "Feature",
            "geometry": {
                "type": "Point",
                "coordinates": [144.96298113724, -37.8201763042794]
            },
            "properties": {
                "theme": "Leisure\/Recreation",
                "sub_theme": "Informal Outdoor Facility (Park\/Garden\/Reserve)",
                "feature_name": "Sandridge Rail Bridge"
            }
        }, {
            "type": "Feature",
            "geometry": {
                "type": "Point",
                "coordinates": [144.962760852233, -37.8027919689732]
            },
            "properties": {
                "theme": "Leisure\/Recreation",
                "sub_theme": "Informal Outdoor Facility (Park\/Garden\/Reserve)",
                "feature_name": "Lincoln Square"
            }
        }, {
            "type": "Feature",
            "geometry": {
                "type": "Point",
                "coordinates": [144.98370007659, -37.8109710654051]
            },
            "properties": {
                "theme": "Health Services",
                "sub_theme": "Private Hospital",
                "feature_name": "Epworth Freemasons Hospital"
            }
        }, {
            "type": "Feature",
            "geometry": {
                "type": "Point",
                "coordinates": [144.98350690799, -37.8132921649416]
            },
            "properties": {
                "theme": "Residential Accommodation",
                "sub_theme": "Dwelling (House)",
                "feature_name": "Bishopscourt"
            }
        }, {
            "type": "Feature",
            "geometry": {
                "type": "Point",
                "coordinates": [144.96923385414, -37.8107686127655]
            },
            "properties": {
                "theme": "Place Of Assembly",
                "sub_theme": "Art Gallery\/Museum",
                "feature_name": "The Museum Of Australian Chinese History"
            }
        }, {
            "type": "Feature",
            "geometry": {
                "type": "Point",
                "coordinates": [144.939277838304, -37.7881645889621]
            },
            "properties": {
                "theme": "Transport",
                "sub_theme": "Railway Station",
                "feature_name": "Flemington Bridge Railway Station"
            }
        }, {
            "type": "Feature",
            "geometry": {
                "type": "Point",
                "coordinates": [144.966638432727, -37.8142591432011]
            },
            "properties": {
                "theme": "Mixed Use",
                "sub_theme": "Retail\/Office\/Carpark",
                "feature_name": "Council House 2 (CH2)"
            }
        }, {
            "type": "Feature",
            "geometry": {
                "type": "Point",
                "coordinates": [144.971266479841, -37.8060684577258]
            },
            "properties": {
                "theme": "Leisure\/Recreation",
                "sub_theme": "Informal Outdoor Facility (Park\/Garden\/Reserve)",
                "feature_name": "Carlton Gardens South"
            }
        }, {
            "type": "Feature",
            "geometry": {
                "type": "Point",
                "coordinates": [144.968168215633, -37.8101576446961]
            },
            "properties": {
                "theme": "Place of Worship",
                "sub_theme": "Church",
                "feature_name": "Wesley Church"
            }
        }, {
            "type": "Feature",
            "geometry": {
                "type": "Point",
                "coordinates": [144.954862000132, -37.8169741358546]
            },
            "properties": {
                "theme": "Place of Worship",
                "sub_theme": "Church",
                "feature_name": "St Augustines Church"
            }
        }, {
            "type": "Feature",
            "geometry": {
                "type": "Point",
                "coordinates": [144.96388920294, -37.8104524079085]
            },
            "properties": {
                "theme": "Place of Worship",
                "sub_theme": "Church",
                "feature_name": "Church of Christ"
            }
        }, {
            "type": "Feature",
            "geometry": {
                "type": "Point",
                "coordinates": [144.983197322289, -37.8140667110854]
            },
            "properties": {
                "theme": "Place of Worship",
                "sub_theme": "Church",
                "feature_name": "Holy Trinity"
            }
        }, {
            "type": "Feature",
            "geometry": {
                "type": "Point",
                "coordinates": [144.984664890999, -37.8114487773394]
            },
            "properties": {
                "theme": "Place of Worship",
                "sub_theme": "Church",
                "feature_name": "Melbourne Unitarian Church"
            }
        }, {
            "type": "Feature",
            "geometry": {
                "type": "Point",
                "coordinates": [144.968981110942, -37.7959155303946]
            },
            "properties": {
                "theme": "Place of Worship",
                "sub_theme": "Church",
                "feature_name": "All Nations Uniting Church"
            }
        }, {
            "type": "Feature",
            "geometry": {
                "type": "Point",
                "coordinates": [144.969334720932, -37.8025766539683]
            },
            "properties": {
                "theme": "Place of Worship",
                "sub_theme": "Church",
                "feature_name": "Our Lady of Lebanon Church"
            }
        }, {
            "type": "Feature",
            "geometry": {
                "type": "Point",
                "coordinates": [144.94161451392, -37.7942169477929]
            },
            "properties": {
                "theme": "Place of Worship",
                "sub_theme": "Church",
                "feature_name": "St Alban Anglican Church"
            }
        }, {
            "type": "Feature",
            "geometry": {
                "type": "Point",
                "coordinates": [144.92729572288, -37.7932109480553]
            },
            "properties": {
                "theme": "Place of Worship",
                "sub_theme": "Church",
                "feature_name": "Christ Church Kensington"
            }
        }, {
            "type": "Feature",
            "geometry": {
                "type": "Point",
                "coordinates": [144.928362125005, -37.7948087414394]
            },
            "properties": {
                "theme": "Place of Worship",
                "sub_theme": "Church",
                "feature_name": "Holy Rosary"
            }
        }, {
            "type": "Feature",
            "geometry": {
                "type": "Point",
                "coordinates": [144.95728837725, -37.7983111309698]
            },
            "properties": {
                "theme": "Health Services",
                "sub_theme": "Private Hospital",
                "feature_name": "Melbourne Private Hospital"
            }
        }, {
            "type": "Feature",
            "geometry": {
                "type": "Point",
                "coordinates": [144.954697453742, -37.8003121288849]
            },
            "properties": {
                "theme": "Community Use",
                "sub_theme": "Police Station",
                "feature_name": "Victoria Police"
            }
        }, {
            "type": "Feature",
            "geometry": {
                "type": "Point",
                "coordinates": [144.953398014034, -37.8219773910249]
            },
            "properties": {
                "theme": "Community Use",
                "sub_theme": "Police Station",
                "feature_name": "Victoria Police"
            }
        }, {
            "type": "Feature",
            "geometry": {
                "type": "Point",
                "coordinates": [144.956309119368, -37.7819171308558]
            },
            "properties": {
                "theme": "Leisure\/Recreation",
                "sub_theme": "Private Sports Club\/Facility",
                "feature_name": "Royal Park Golf Course"
            }
        }, {
            "type": "Feature",
            "geometry": {
                "type": "Point",
                "coordinates": [144.961982577553, -37.7834303940347]
            },
            "properties": {
                "theme": "Leisure\/Recreation",
                "sub_theme": "Major Sports & Recreation Facility",
                "feature_name": "Visy Park"
            }
        }, {
            "type": "Feature",
            "geometry": {
                "type": "Point",
                "coordinates": [144.965463853978, -37.8077644149636]
            },
            "properties": {
                "theme": "Place Of Assembly",
                "sub_theme": "Art Gallery\/Museum",
                "feature_name": "Old Melbourne Gaol Crime & Justice Experience"
            }
        }, {
            "type": "Feature",
            "geometry": {
                "type": "Point",
                "coordinates": [144.968337832721, -37.8218124583016]
            },
            "properties": {
                "theme": "Place Of Assembly",
                "sub_theme": "Theatre Live",
                "feature_name": "Playhouse"
            }
        }, {
            "type": "Feature",
            "geometry": {
                "type": "Point",
                "coordinates": [144.956665812218, -37.8218460949601]
            },
            "properties": {
                "theme": "Leisure\/Recreation",
                "sub_theme": "Informal Outdoor Facility (Park\/Garden\/Reserve)",
                "feature_name": "Batman Park"
            }
        }, {
            "type": "Feature",
            "geometry": {
                "type": "Point",
                "coordinates": [144.952635945774, -37.7990921023192]
            },
            "properties": {
                "theme": "Office",
                "sub_theme": "Office",
                "feature_name": "Australian Red Cross"
            }
        }, {
            "type": "Feature",
            "geometry": {
                "type": "Point",
                "coordinates": [144.95435243249, -37.8252455123297]
            },
            "properties": {
                "theme": "Place Of Assembly",
                "sub_theme": "Function\/Conference\/Exhibition Centre",
                "feature_name": "Melbourne Exhibition Centre"
            }
        }, {
            "type": "Feature",
            "geometry": {
                "type": "Point",
                "coordinates": [144.953478052064, -37.8242574266145]
            },
            "properties": {
                "theme": "Place Of Assembly",
                "sub_theme": "Art Gallery\/Museum",
                "feature_name": "Polly Woodside"
            }
        }, {
            "type": "Feature",
            "geometry": {
                "type": "Point",
                "coordinates": [144.968837288153, -37.8219947335768]
            },
            "properties": {
                "theme": "Place Of Assembly",
                "sub_theme": "Art Gallery\/Museum",
                "feature_name": "Victorian Arts Centre"
            }
        }, {
            "type": "Feature",
            "geometry": {
                "type": "Point",
                "coordinates": [144.966542722283, -37.8150754791411]
            },
            "properties": {
                "theme": "Community Use",
                "sub_theme": "Public Buildings",
                "feature_name": "Melbourne Town Hall"
            }
        }, {
            "type": "Feature",
            "geometry": {
                "type": "Point",
                "coordinates": [144.949794297819, -37.824887401234]
            },
            "properties": {
                "theme": "Mixed Use",
                "sub_theme": "Retail\/Office",
                "feature_name": "DFO South Wharf"
            }
        }, {
            "type": "Feature",
            "geometry": {
                "type": "Point",
                "coordinates": [144.974686151365, -37.8233471608733]
            },
            "properties": {
                "theme": "Community Use",
                "sub_theme": "Public Buildings",
                "feature_name": "Sidney Myer Music Bowl"
            }
        }, {
            "type": "Feature",
            "geometry": {
                "type": "Point",
                "coordinates": [144.976268275082, -37.8087522829868]
            },
            "properties": {
                "theme": "Health Services",
                "sub_theme": "Public Hospital",
                "feature_name": "The Royal Victorian Eye & Ear Hospital"
            }
        }, {
            "type": "Feature",
            "geometry": {
                "type": "Point",
                "coordinates": [144.969899048343, -37.8174831423197]
            },
            "properties": {
                "theme": "Place Of Assembly",
                "sub_theme": "Art Gallery\/Museum",
                "feature_name": "The Ian Potter Centre: NGV Australia"
            }
        }, {
            "type": "Feature",
            "geometry": {
                "type": "Point",
                "coordinates": [144.94582326909, -37.8158572333481]
            },
            "properties": {
                "theme": "Purpose Built",
                "sub_theme": "Film & RV Studio",
                "feature_name": "Channel 7 - Melbourne Broadcast Centre"
            }
        }, {
            "type": "Feature",
            "geometry": {
                "type": "Point",
                "coordinates": [144.938123825625, -37.8139256326845]
            },
            "properties": {
                "theme": "Vacant Land",
                "sub_theme": "Current Construction Site",
                "feature_name": "Harbour Town"
            }
        }, {
            "type": "Feature",
            "geometry": {
                "type": "Point",
                "coordinates": [144.98380297866, -37.8247252673963]
            },
            "properties": {
                "theme": "Leisure\/Recreation",
                "sub_theme": "Major Sports & Recreation Facility",
                "feature_name": "AAMI Park"
            }
        }, {
            "type": "Feature",
            "geometry": {
                "type": "Point",
                "coordinates": [144.943475014215, -37.8165177307702]
            },
            "properties": {
                "theme": "Place Of Assembly",
                "sub_theme": "Function\/Conference\/Exhibition Centre",
                "feature_name": "Central Pier"
            }
        }, {
            "type": "Feature",
            "geometry": {
                "type": "Point",
                "coordinates": [144.937588920436, -37.8116163666726]
            },
            "properties": {
                "theme": "Leisure\/Recreation",
                "sub_theme": "Observation Tower\/Wheel",
                "feature_name": "Melbourne Star Observation Wheel"
            }
        }, {
            "type": "Feature",
            "geometry": {
                "type": "Point",
                "coordinates": [144.948908460665, -37.8221818203024]
            },
            "properties": {
                "theme": "Education Centre",
                "sub_theme": "Further Education",
                "feature_name": "Kangan Batman Tafe"
            }
        }, {
            "type": "Feature",
            "geometry": {
                "type": "Point",
                "coordinates": [144.977591098955, -37.8213252086842]
            },
            "properties": {
                "theme": "Leisure\/Recreation",
                "sub_theme": "Major Sports & Recreation Facility",
                "feature_name": "Margaret Court Arena"
            }
        }, {
            "type": "Feature",
            "geometry": {
                "type": "Point",
                "coordinates": [144.968174400274, -37.8242661832902]
            },
            "properties": {
                "theme": "Place Of Assembly",
                "sub_theme": "Theatre Live",
                "feature_name": "MTC Theatre"
            }
        }, {
            "type": "Feature",
            "geometry": {
                "type": "Point",
                "coordinates": [144.969342535451, -37.8230135000869]
            },
            "properties": {
                "theme": "Community Use",
                "sub_theme": "Public Buildings",
                "feature_name": "NGV International"
            }
        }, {
            "type": "Feature",
            "geometry": {
                "type": "Point",
                "coordinates": [144.97314667014, -37.81806108403]
            },
            "properties": {
                "theme": "Leisure\/Recreation",
                "sub_theme": "Informal Outdoor Facility (Park\/Garden\/Reserve)",
                "feature_name": "Birrarung Marr"
            }
        }, {
            "type": "Feature",
            "geometry": {
                "type": "Point",
                "coordinates": [144.971542586509, -37.8184198800044]
            },
            "properties": {
                "theme": "Leisure\/Recreation",
                "sub_theme": "Indoor Recreation Facility",
                "feature_name": "Artplay"
            }
        }, {
            "type": "Feature",
            "geometry": {
                "type": "Point",
                "coordinates": [144.972951789291, -37.8207887122448]
            },
            "properties": {
                "theme": "Leisure\/Recreation",
                "sub_theme": "Informal Outdoor Facility (Park\/Garden\/Reserve)",
                "feature_name": "Riverslide Skate Park"
            }
        }, {
            "type": "Feature",
            "geometry": {
                "type": "Point",
                "coordinates": [144.936190756632, -37.794964001386]
            },
            "properties": {
                "theme": "Transport",
                "sub_theme": "Railway Station",
                "feature_name": "Macaulay Railway Station (North Melbourne) - Train stop"
            }
        }, {
            "type": "Feature",
            "geometry": {
                "type": "Point",
                "coordinates": [144.930710207518, -37.7939140126373]
            },
            "properties": {
                "theme": "Transport",
                "sub_theme": "Railway Station",
                "feature_name": "Kensington Railway Station"
            }
        }, {
            "type": "Feature",
            "geometry": {
                "type": "Point",
                "coordinates": [144.953834240647, -37.7906174256581]
            },
            "properties": {
                "theme": "Leisure\/Recreation",
                "sub_theme": "Informal Outdoor Facility (Park\/Garden\/Reserve)",
                "feature_name": "Royal Park"
            }
        }, {
            "type": "Feature",
            "geometry": {
                "type": "Point",
                "coordinates": [144.973628364465, -37.8320733992876]
            },
            "properties": {
                "theme": "Leisure\/Recreation",
                "sub_theme": "Informal Outdoor Facility (Park\/Garden\/Reserve)",
                "feature_name": "Shrine of Rembrance Reserve"
            }
        }, {
            "type": "Feature",
            "geometry": {
                "type": "Point",
                "coordinates": [144.976655130464, -37.8275635886174]
            },
            "properties": {
                "theme": "Residential Accommodation",
                "sub_theme": "Dwelling (House)",
                "feature_name": "Government House"
            }
        }, {
            "type": "Feature",
            "geometry": {
                "type": "Point",
                "coordinates": [144.980850432751, -37.8306631583233]
            },
            "properties": {
                "theme": "Leisure\/Recreation",
                "sub_theme": "Informal Outdoor Facility (Park\/Garden\/Reserve)",
                "feature_name": "Royal Botanic Gardens"
            }
        }, {
            "type": "Feature",
            "geometry": {
                "type": "Point",
                "coordinates": [144.986671109615, -37.820469374101]
            },
            "properties": {
                "theme": "Leisure\/Recreation",
                "sub_theme": "Informal Outdoor Facility (Park\/Garden\/Reserve)",
                "feature_name": "Yarra Park"
            }
        }, {
            "type": "Feature",
            "geometry": {
                "type": "Point",
                "coordinates": [144.96447462898, -37.8243437355246]
            },
            "properties": {
                "theme": "Office",
                "sub_theme": "Office",
                "feature_name": "Coronial Services Centre of Victoria"
            }
        }, {
            "type": "Feature",
            "geometry": {
                "type": "Point",
                "coordinates": [144.935684018873, -37.8121881194053]
            },
            "properties": {
                "theme": "Leisure\/Recreation",
                "sub_theme": "Indoor Recreation Facility",
                "feature_name": "Icehouse"
            }
        }, {
            "type": "Feature",
            "geometry": {
                "type": "Point",
                "coordinates": [144.973433796529, -37.8127621113552]
            },
            "properties": {
                "theme": "Transport",
                "sub_theme": "Railway Station",
                "feature_name": "Parliament Railway Station"
            }
        }, {
            "type": "Feature",
            "geometry": {
                "type": "Point",
                "coordinates": [144.972330132127, -37.8095762219384]
            },
            "properties": {
                "theme": "Transport",
                "sub_theme": "Railway Station",
                "feature_name": "Parliament Railway Station"
            }
        }, {
            "type": "Feature",
            "geometry": {
                "type": "Point",
                "coordinates": [144.962670059539, -37.8097759325888]
            },
            "properties": {
                "theme": "Transport",
                "sub_theme": "Railway Station",
                "feature_name": "Melbourne Central Railway Station"
            }
        }, {
            "type": "Feature",
            "geometry": {
                "type": "Point",
                "coordinates": [144.908190706069, -37.7869105822519]
            },
            "properties": {
                "theme": "Transport",
                "sub_theme": "Railway Station",
                "feature_name": "Flemington Racecourse Railway Station"
            }
        }, {
            "type": "Feature",
            "geometry": {
                "type": "Point",
                "coordinates": [144.989062559512, -37.81299206932]
            },
            "properties": {
                "theme": "Leisure\/Recreation",
                "sub_theme": "Informal Outdoor Facility (Park\/Garden\/Reserve)",
                "feature_name": "Darling Square"
            }
        }, {
            "type": "Feature",
            "geometry": {
                "type": "Point",
                "coordinates": [144.954039975197, -37.8222182774409]
            },
            "properties": {
                "theme": "Place Of Assembly",
                "sub_theme": "Art Gallery\/Museum",
                "feature_name": "Victoria Police Museum"
            }
        }, {
            "type": "Feature",
            "geometry": {
                "type": "Point",
                "coordinates": [144.960426777129, -37.8191798798062]
            },
            "properties": {
                "theme": "Place Of Assembly",
                "sub_theme": "Art Gallery\/Museum",
                "feature_name": "Immigration Museum"
            }
        }, {
            "type": "Feature",
            "geometry": {
                "type": "Point",
                "coordinates": [144.967681647402, -37.8169549012399]
            },
            "properties": {
                "theme": "Place of Worship",
                "sub_theme": "Church",
                "feature_name": "St Pauls Cathedral"
            }
        }, {
            "type": "Feature",
            "geometry": {
                "type": "Point",
                "coordinates": [144.930613255612, -37.8083471006041]
            },
            "properties": {
                "theme": "Warehouse\/Store",
                "sub_theme": "Store Yard",
                "feature_name": "Melbourne Wholesale Fish Market"
            }
        }, {
            "type": "Feature",
            "geometry": {
                "type": "Point",
                "coordinates": [144.975373745366, -37.8085761281612]
            },
            "properties": {
                "theme": "Place Of Assembly",
                "sub_theme": "Art Gallery\/Museum",
                "feature_name": "Fire Services Museum Victoria"
            }
        }, {
            "type": "Feature",
            "geometry": {
                "type": "Point",
                "coordinates": [144.964156669702, -37.7973939595503]
            },
            "properties": {
                "theme": "Place Of Assembly",
                "sub_theme": "Art Gallery\/Museum",
                "feature_name": "The Ian Potter Museum Of Art"
            }
        }, {
            "type": "Feature",
            "geometry": {
                "type": "Point",
                "coordinates": [144.96099520158, -37.7982892284927]
            },
            "properties": {
                "theme": "Education Centre",
                "sub_theme": "Tertiary (University)",
                "feature_name": "University of Melbourne"
            }
        }, {
            "type": "Feature",
            "geometry": {
                "type": "Point",
                "coordinates": [144.965714574014, -37.8106891897454]
            },
            "properties": {
                "theme": "Mixed Use",
                "sub_theme": "Retail\/Office\/Residential\/Carpark",
                "feature_name": "QV Village"
            }
        }, {
            "type": "Feature",
            "geometry": {
                "type": "Point",
                "coordinates": [144.973462202839, -37.809852620638]
            },
            "properties": {
                "theme": "Leisure\/Recreation",
                "sub_theme": "Informal Outdoor Facility (Park\/Garden\/Reserve)",
                "feature_name": "Parliament Reserve"
            }
        }, {
            "type": "Feature",
            "geometry": {
                "type": "Point",
                "coordinates": [144.943290801869, -37.7999470049655]
            },
            "properties": {
                "theme": "Leisure\/Recreation",
                "sub_theme": "Major Sports & Recreation Facility",
                "feature_name": "North Melbourne Recreation Centre (Aquatic)"
            }
        }, {
            "type": "Feature",
            "geometry": {
                "type": "Point",
                "coordinates": [144.940963510723, -37.799771364073]
            },
            "properties": {
                "theme": "Office",
                "sub_theme": "Office",
                "feature_name": "North Melbourne Football Club"
            }
        }, {
            "type": "Feature",
            "geometry": {
                "type": "Point",
                "coordinates": [144.940368286395, -37.7997051197931]
            },
            "properties": {
                "theme": "Leisure\/Recreation",
                "sub_theme": "Gymnasium\/Health Club",
                "feature_name": "North Melbourne Recreation Centre (Gymnasium)"
            }
        }, {
            "type": "Feature",
            "geometry": {
                "type": "Point",
                "coordinates": [144.971696548624, -37.7934377042609]
            },
            "properties": {
                "theme": "Leisure\/Recreation",
                "sub_theme": "Indoor Recreation Facility",
                "feature_name": "Carlton Baths"
            }
        }, {
            "type": "Feature",
            "geometry": {
                "type": "Point",
                "coordinates": [144.9785597431, -37.814002127195]
            },
            "properties": {
                "theme": "Community Use",
                "sub_theme": "Public Buildings",
                "feature_name": "Conservatory"
            }
        }, {
            "type": "Feature",
            "geometry": {
                "type": "Point",
                "coordinates": [144.964456721965, -37.8215157539717]
            },
            "properties": {
                "theme": "Mixed Use",
                "sub_theme": "Retail\/Residential",
                "feature_name": "Eureka Tower"
            }
        }, {
            "type": "Feature",
            "geometry": {
                "type": "Point",
                "coordinates": [144.96246144843, -37.8219745489446]
            },
            "properties": {
                "theme": "Mixed Use",
                "sub_theme": "Retail\/Office\/Residential\/Carpark",
                "feature_name": "Freshwater Place"
            }
        }, {
            "type": "Feature",
            "geometry": {
                "type": "Point",
                "coordinates": [144.967937138226, -37.8177352402006]
            },
            "properties": {
                "theme": "Community Use",
                "sub_theme": "Visitor Centre",
                "feature_name": "Melbourne Visitor Centre"
            }
        }, {
            "type": "Feature",
            "geometry": {
                "type": "Point",
                "coordinates": [144.969070431323, -37.8176107327202]
            },
            "properties": {
                "theme": "Place Of Assembly",
                "sub_theme": "Art Gallery\/Museum",
                "feature_name": "Australian Centre For The Moving Image (ACMI)"
            }
        }, {
            "type": "Feature",
            "geometry": {
                "type": "Point",
                "coordinates": [144.981383411592, -37.8097374138234]
            },
            "properties": {
                "theme": "Place Of Assembly",
                "sub_theme": "Function\/Conference\/Exhibition Centre",
                "feature_name": "Dallas Brooks Centre"
            }
        }, {
            "type": "Feature",
            "geometry": {
                "type": "Point",
                "coordinates": [144.967291289941, -37.8148855756416]
            },
            "properties": {
                "theme": "Place Of Assembly",
                "sub_theme": "Library",
                "feature_name": "The Melbourne Athenaeum Library"
            }
        }, {
            "type": "Feature",
            "geometry": {
                "type": "Point",
                "coordinates": [144.966986444597, -37.8052307297468]
            },
            "properties": {
                "theme": "Place of Worship",
                "sub_theme": "Church",
                "feature_name": "Romanian Orthodox"
            }
        }, {
            "type": "Feature",
            "geometry": {
                "type": "Point",
                "coordinates": [144.959873260087, -37.8104478768313]
            },
            "properties": {
                "theme": "Place of Worship",
                "sub_theme": "Church",
                "feature_name": "Welsh Presbyterian Church"
            }
        }, {
            "type": "Feature",
            "geometry": {
                "type": "Point",
                "coordinates": [144.975259178609, -37.8097086714637]
            },
            "properties": {
                "theme": "Place of Worship",
                "sub_theme": "Church",
                "feature_name": "St Peter's Eastern Hill"
            }
        }, {
            "type": "Feature",
            "geometry": {
                "type": "Point",
                "coordinates": [144.975729473552, -37.8109757054396]
            },
            "properties": {
                "theme": "Place of Worship",
                "sub_theme": "Church",
                "feature_name": "Lutheran Trinity Church"
            }
        }, {
            "type": "Feature",
            "geometry": {
                "type": "Point",
                "coordinates": [144.967121099857, -37.8209399677168]
            },
            "properties": {
                "theme": "Place of Worship",
                "sub_theme": "Church",
                "feature_name": "St Johns Lutheran Church"
            }
        }, {
            "type": "Feature",
            "geometry": {
                "type": "Point",
                "coordinates": [144.945399480629, -37.7940512679297]
            },
            "properties": {
                "theme": "Place of Worship",
                "sub_theme": "Church",
                "feature_name": "St Michaels"
            }
        }, {
            "type": "Feature",
            "geometry": {
                "type": "Point",
                "coordinates": [144.944313454028, -37.7963084580345]
            },
            "properties": {
                "theme": "Place of Worship",
                "sub_theme": "Church",
                "feature_name": "Ukranian Catholic Cathedral"
            }
        }, {
            "type": "Feature",
            "geometry": {
                "type": "Point",
                "coordinates": [144.968072486031, -37.8147011904647]
            },
            "properties": {
                "theme": "Place of Worship",
                "sub_theme": "Church",
                "feature_name": "Collins Street Baptist Church"
            }
        }, {
            "type": "Feature",
            "geometry": {
                "type": "Point",
                "coordinates": [144.976809080472, -37.8353076902578]
            },
            "properties": {
                "theme": "Place of Worship",
                "sub_theme": "Church",
                "feature_name": "St Thomas Aquinas Church"
            }
        }, {
            "type": "Feature",
            "geometry": {
                "type": "Point",
                "coordinates": [144.986009385387, -37.8386270533576]
            },
            "properties": {
                "theme": "Place of Worship",
                "sub_theme": "Church",
                "feature_name": "The Parish of Christ Church South Yarra"
            }
        }, {
            "type": "Feature",
            "geometry": {
                "type": "Point",
                "coordinates": [144.966486801188, -37.8164849024046]
            },
            "properties": {
                "theme": "Community Use",
                "sub_theme": "Police Station",
                "feature_name": "Victoria Police"
            }
        }, {
            "type": "Feature",
            "geometry": {
                "type": "Point",
                "coordinates": [144.964425882562, -37.8139525061193]
            },
            "properties": {
                "theme": "Community Use",
                "sub_theme": "Visitor Centre",
                "feature_name": "Melbourne Visitor Booth"
            }
        }, {
            "type": "Feature",
            "geometry": {
                "type": "Point",
                "coordinates": [144.947580972027, -37.7857860016289]
            },
            "properties": {
                "theme": "Leisure\/Recreation",
                "sub_theme": "Major Sports & Recreation Facility",
                "feature_name": "State Netball Hockey Centre"
            }
        }, {
            "type": "Feature",
            "geometry": {
                "type": "Point",
                "coordinates": [144.960398319302, -37.800410711209]
            },
            "properties": {
                "theme": "Leisure\/Recreation",
                "sub_theme": "Informal Outdoor Facility (Park\/Garden\/Reserve)",
                "feature_name": "University Square"
            }
        }, {
            "type": "Feature",
            "geometry": {
                "type": "Point",
                "coordinates": [144.987275671763, -37.8116929882498]
            },
            "properties": {
                "theme": "Leisure\/Recreation",
                "sub_theme": "Informal Outdoor Facility (Park\/Garden\/Reserve)",
                "feature_name": "Powlett Reserve"
            }
        }, {
            "type": "Feature",
            "geometry": {
                "type": "Point",
                "coordinates": [144.965785979892, -37.7891890023616]
            },
            "properties": {
                "theme": "Community Use",
                "sub_theme": "Cemetery",
                "feature_name": "Melbourne General Cemetery"
            }
        }, {
            "type": "Feature",
            "geometry": {
                "type": "Point",
                "coordinates": [144.957158515056, -37.8075002018073]
            },
            "properties": {
                "theme": "Retail",
                "sub_theme": "Retail",
                "feature_name": "Queen Victoria Market"
            }
        }, {
            "type": "Feature",
            "geometry": {
                "type": "Point",
                "coordinates": [144.970147317976, -37.7959079757171]
            },
            "properties": {
                "theme": "Education Centre",
                "sub_theme": "Primary Schools",
                "feature_name": "Carlton Primary School"
            }
        }, {
            "type": "Feature",
            "geometry": {
                "type": "Point",
                "coordinates": [144.982227770988, -37.8485201804496]
            },
            "properties": {
                "theme": "Education Centre",
                "sub_theme": "School - Primary and Secondary Education",
                "feature_name": "Wesley College"
            }
        }, {
            "type": "Feature",
            "geometry": {
                "type": "Point",
                "coordinates": [144.968469643744, -37.8212806349773]
            },
            "properties": {
                "theme": "Place Of Assembly",
                "sub_theme": "Theatre Live",
                "feature_name": "State Theatre"
            }
        }, {
            "type": "Feature",
            "geometry": {
                "type": "Point",
                "coordinates": [144.96933253996, -37.8241137662047]
            },
            "properties": {
                "theme": "Education Centre",
                "sub_theme": "Tertiary (University)",
                "feature_name": "University of Melbourne (VCA and Music)"
            }
        }, {
            "type": "Feature",
            "geometry": {
                "type": "Point",
                "coordinates": [144.98114217385, -37.8352429531289]
            },
            "properties": {
                "theme": "Place Of Assembly",
                "sub_theme": "Theatre Live",
                "feature_name": "St Martins Youth Arts Centre"
            }
        }, {
            "type": "Feature",
            "geometry": {
                "type": "Point",
                "coordinates": [144.952944748845, -37.8181633057171]
            },
            "properties": {
                "theme": "Transport",
                "sub_theme": "Railway Station",
                "feature_name": "Southern Cross Railway Station"
            }
        }, {
            "type": "Feature",
            "geometry": {
                "type": "Point",
                "coordinates": [144.9723265962, -37.8107257091302]
            },
            "properties": {
                "theme": "Place Of Assembly",
                "sub_theme": "Theatre Live",
                "feature_name": "Princess Theatre"
            }
        }, {
            "type": "Feature",
            "geometry": {
                "type": "Point",
                "coordinates": [144.956034449946, -37.7973136216903]
            },
            "properties": {
                "theme": "Education Centre",
                "sub_theme": "Secondary Schools",
                "feature_name": "University High School"
            }
        }, {
            "type": "Feature",
            "geometry": {
                "type": "Point",
                "coordinates": [144.964330322397, -37.8099852201226]
            },
            "properties": {
                "theme": "Community Use",
                "sub_theme": "Public Buildings",
                "feature_name": "State Library Victoria"
            }
        }, {
            "type": "Feature",
            "geometry": {
                "type": "Point",
                "coordinates": [144.967916735261, -37.8160014744179]
            },
            "properties": {
                "theme": "Place Of Assembly",
                "sub_theme": "Theatre Live",
                "feature_name": "Regent Theatre"
            }
        }, {
            "type": "Feature",
            "geometry": {
                "type": "Point",
                "coordinates": [144.974423610255, -37.8132371662585]
            },
            "properties": {
                "theme": "Office",
                "sub_theme": "Office",
                "feature_name": "Old Treasury Building"
            }
        }, {
            "type": "Feature",
            "geometry": {
                "type": "Point",
                "coordinates": [144.957894024264, -37.8141494182814]
            },
            "properties": {
                "theme": "Community Use",
                "sub_theme": "Public Buildings",
                "feature_name": "Supreme Court"
            }
        }, {
            "type": "Feature",
            "geometry": {
                "type": "Point",
                "coordinates": [144.988156318781, -37.8216740022008]
            },
            "properties": {
                "theme": "Leisure\/Recreation",
                "sub_theme": "Informal Outdoor Facility (Park\/Garden\/Reserve)",
                "feature_name": "Richmond Football Club"
            }
        }, {
            "type": "Feature",
            "geometry": {
                "type": "Point",
                "coordinates": [144.951371205938, -37.7844449253712]
            },
            "properties": {
                "theme": "Leisure\/Recreation",
                "sub_theme": "Outdoor Recreation Facility (Zoo, Golf Course)",
                "feature_name": "Melbourne Zoo"
            }
        }, {
            "type": "Feature",
            "geometry": {
                "type": "Point",
                "coordinates": [144.966551401578, -37.823813323734]
            },
            "properties": {
                "theme": "Office",
                "sub_theme": "Office",
                "feature_name": "Australian Broadcasting Corporation (ABC)"
            }
        }, {
            "type": "Feature",
            "geometry": {
                "type": "Point",
                "coordinates": [144.952288281644, -37.8249040484653]
            },
            "properties": {
                "theme": "Place Of Assembly",
                "sub_theme": "Function\/Conference\/Exhibition Centre",
                "feature_name": "Melbourne Convention Centre"
            }
        }, {
            "type": "Feature",
            "geometry": {
                "type": "Point",
                "coordinates": [144.913415802464, -37.8292844929826]
            },
            "properties": {
                "theme": "Leisure\/Recreation",
                "sub_theme": "Private Sports Club\/Facility",
                "feature_name": "Melbourne International Shooting Club"
            }
        }, {
            "type": "Feature",
            "geometry": {
                "type": "Point",
                "coordinates": [144.966936821789, -37.8271768001126]
            },
            "properties": {
                "theme": "Place Of Assembly",
                "sub_theme": "Theatre Live",
                "feature_name": "Malthouse Theatre"
            }
        }, {
            "type": "Feature",
            "geometry": {
                "type": "Point",
                "coordinates": [144.957312880653, -37.8235761092516]
            },
            "properties": {
                "theme": "Purpose Built",
                "sub_theme": "Casino",
                "feature_name": "Crown Entertainment Complex"
            }
        }, {
            "type": "Feature",
            "geometry": {
                "type": "Point",
                "coordinates": [144.9839700954, -37.8188662730911]
            },
            "properties": {
                "theme": "Place Of Assembly",
                "sub_theme": "Art Gallery\/Museum",
                "feature_name": "Thoroughbred Racing Gallery"
            }
        }, {
            "type": "Feature",
            "geometry": {
                "type": "Point",
                "coordinates": [144.946781702342, -37.8209956785618]
            },
            "properties": {
                "theme": "Leisure\/Recreation",
                "sub_theme": "Informal Outdoor Facility (Park\/Garden\/Reserve)",
                "feature_name": "Docklands Park"
            }
        }, {
            "type": "Feature",
            "geometry": {
                "type": "Point",
                "coordinates": [144.939136876334, -37.815056661803]
            },
            "properties": {
                "theme": "Mixed Use",
                "sub_theme": "Retail\/Office",
                "feature_name": "Waterfront City"
            }
        }, {
            "type": "Feature",
            "geometry": {
                "type": "Point",
                "coordinates": [144.942102276731, -37.8233522700646]
            },
            "properties": {
                "theme": "Leisure\/Recreation",
                "sub_theme": "Informal Outdoor Facility (Park\/Garden\/Reserve)",
                "feature_name": "Point Park"
            }
        }, {
            "type": "Feature",
            "geometry": {
                "type": "Point",
                "coordinates": [144.927108735461, -37.7925235045455]
            },
            "properties": {
                "theme": "Education Centre",
                "sub_theme": "Primary Schools",
                "feature_name": "Kensington Primary School"
            }
        }, {
            "type": "Feature",
            "geometry": {
                "type": "Point",
                "coordinates": [144.948496661709, -37.8213744301481]
            },
            "properties": {
                "theme": "Place Of Assembly",
                "sub_theme": "Art Gallery\/Museum",
                "feature_name": "Fox Classic Car Collection"
            }
        }, {
            "type": "Feature",
            "geometry": {
                "type": "Point",
                "coordinates": [144.951378883631, -37.8211371302179]
            },
            "properties": {
                "theme": "Vacant Land",
                "sub_theme": "Current Construction Site - Commercial",
                "feature_name": "Railway Good Shed No 2"
            }
        }, {
            "type": "Feature",
            "geometry": {
                "type": "Point",
                "coordinates": [144.970639929886, -37.8034315561903]
            },
            "properties": {
                "theme": "Place Of Assembly",
                "sub_theme": "Cinema",
                "feature_name": "IMAX Melbourne"
            }
        }, {
            "type": "Feature",
            "geometry": {
                "type": "Point",
                "coordinates": [144.968297429894, -37.823930384816]
            },
            "properties": {
                "theme": "Community Use",
                "sub_theme": "Public Buildings",
                "feature_name": "Melbourne Theatre Company"
            }
        }, {
            "type": "Feature",
            "geometry": {
                "type": "Point",
                "coordinates": [144.971796067365, -37.8206051404251]
            },
            "properties": {
                "theme": "Leisure\/Recreation",
                "sub_theme": "Informal Outdoor Facility (Park\/Garden\/Reserve)",
                "feature_name": "Alexandra Gardens"
            }
        }, {
            "type": "Feature",
            "geometry": {
                "type": "Point",
                "coordinates": [144.973017263156, -37.8116061787171]
            },
            "properties": {
                "theme": "Transport",
                "sub_theme": "Railway Station",
                "feature_name": "Parliament Railway Station"
            }
        }, {
            "type": "Feature",
            "geometry": {
                "type": "Point",
                "coordinates": [144.989400751664, -37.8238992659834]
            },
            "properties": {
                "theme": "Transport",
                "sub_theme": "Railway Station",
                "feature_name": "Richmond Railway Station (Richmond) - Train stop"
            }
        }, {
            "type": "Feature",
            "geometry": {
                "type": "Point",
                "coordinates": [144.983641003377, -37.8165651811668]
            },
            "properties": {
                "theme": "Transport",
                "sub_theme": "Railway Station",
                "feature_name": "Jolimont-MCG Railway Station (East Melbourne) - Train stop"
            }
        }, {
            "type": "Feature",
            "geometry": {
                "type": "Point",
                "coordinates": [144.941452061463, -37.7988345257153]
            },
            "properties": {
                "theme": "Leisure\/Recreation",
                "sub_theme": "Informal Outdoor Facility (Park\/Garden\/Reserve)",
                "feature_name": "North Melbourne Recreation Reserve"
            }
        }, {
            "type": "Feature",
            "geometry": {
                "type": "Point",
                "coordinates": [144.961115214367, -37.7870161727156]
            },
            "properties": {
                "theme": "Leisure\/Recreation",
                "sub_theme": "Informal Outdoor Facility (Park\/Garden\/Reserve)",
                "feature_name": "Princes Park"
            }
        }, {
            "type": "Feature",
            "geometry": {
                "type": "Point",
                "coordinates": [144.973441913623, -37.8302080020387]
            },
            "properties": {
                "theme": "Community Use",
                "sub_theme": "Public Buildings",
                "feature_name": "Shrine of Remembrance"
            }
        }, {
            "type": "Feature",
            "geometry": {
                "type": "Point",
                "coordinates": [144.964979061564, -37.8246924089335]
            },
            "properties": {
                "theme": "Office",
                "sub_theme": "Office",
                "feature_name": "Victorian Insitute of Forensic Medicine"
            }
        }, {
            "type": "Feature",
            "geometry": {
                "type": "Point",
                "coordinates": [144.965169035668, -37.8248231859563]
            },
            "properties": {
                "theme": "Office",
                "sub_theme": "Office",
                "feature_name": "Donor Tissue Bank of Victoria"
            }
        }, {
            "type": "Feature",
            "geometry": {
                "type": "Point",
                "coordinates": [144.973742010011, -37.8121572789173]
            },
            "properties": {
                "theme": "Transport",
                "sub_theme": "Railway Station",
                "feature_name": "Parliament Railway Station"
            }
        }, {
            "type": "Feature",
            "geometry": {
                "type": "Point",
                "coordinates": [144.914902626775, -37.7834651216244]
            },
            "properties": {
                "theme": "Transport",
                "sub_theme": "Railway Station",
                "feature_name": "Showgrounds Railway Station (Flemington)"
            }
        }, {
            "type": "Feature",
            "geometry": {
                "type": "Point",
                "coordinates": [144.929059958114, -37.7872726241965]
            },
            "properties": {
                "theme": "Transport",
                "sub_theme": "Railway Station",
                "feature_name": "Newmarket Railway Station"
            }
        }, {
            "type": "Feature",
            "geometry": {
                "type": "Point",
                "coordinates": [144.981786260765, -37.8462631206461]
            },
            "properties": {
                "theme": "Health Services",
                "sub_theme": "Public Hospital",
                "feature_name": "Alfred Hospital"
            }
        }, {
            "type": "Feature",
            "geometry": {
                "type": "Point",
                "coordinates": [144.968750113566, -37.7976589943217]
            },
            "properties": {
                "theme": "Place Of Assembly",
                "sub_theme": "Theatre Live",
                "feature_name": "Carlton Courthouse Theatre"
            }
        }, {
            "type": "Feature",
            "geometry": {
                "type": "Point",
                "coordinates": [144.910822117306, -37.7823097850883]
            },
            "properties": {
                "theme": "Leisure\/Recreation",
                "sub_theme": "Outdoor Recreation Facility (Zoo, Golf Course)",
                "feature_name": "Melbourne Showgrounds"
            }
        }, {
            "type": "Feature",
            "geometry": {
                "type": "Point",
                "coordinates": [144.97013311862, -37.8102053945163]
            },
            "properties": {
                "theme": "Place Of Assembly",
                "sub_theme": "Theatre Live",
                "feature_name": "Comedy Theatre"
            }
        }, {
            "type": "Feature",
            "geometry": {
                "type": "Point",
                "coordinates": [144.967669503083, -37.7991304956733]
            },
            "properties": {
                "theme": "Place Of Assembly",
                "sub_theme": "Theatre Live",
                "feature_name": "La Mama Theatre"
            }
        }, {
            "type": "Feature",
            "geometry": {
                "type": "Point",
                "coordinates": [144.923475698195, -37.8262313085528]
            },
            "properties": {
                "theme": "Industrial",
                "sub_theme": "Industrial (Manufacturing)",
                "feature_name": "Kraft"
            }
        }, {
            "type": "Feature",
            "geometry": {
                "type": "Point",
                "coordinates": [144.969386556998, -37.816485409696]
            },
            "properties": {
                "theme": "Place Of Assembly",
                "sub_theme": "Theatre Live",
                "feature_name": "Forum Theatre"
            }
        }, {
            "type": "Feature",
            "geometry": {
                "type": "Point",
                "coordinates": [144.923287444259, -37.80687252157]
            },
            "properties": {
                "theme": "Mixed Use",
                "sub_theme": "Retail\/Office\/Carpark",
                "feature_name": "Melbourne Wholesale Fruit, Vegetable & Flower Market"
            }
        }, {
            "type": "Feature",
            "geometry": {
                "type": "Point",
                "coordinates": [144.962749729496, -37.8105371797142]
            },
            "properties": {
                "theme": "Mixed Use",
                "sub_theme": "Retail\/Office\/Carpark",
                "feature_name": "Melbourne Central"
            }
        }, {
            "type": "Feature",
            "geometry": {
                "type": "Point",
                "coordinates": [144.963789344893, -37.8100167030855]
            },
            "properties": {
                "theme": "Transport",
                "sub_theme": "Railway Station",
                "feature_name": "Melbourne Central Railway Station"
            }
        }, {
            "type": "Feature",
            "geometry": {
                "type": "Point",
                "coordinates": [144.965761295089, -37.8031480577285]
            },
            "properties": {
                "theme": "Leisure\/Recreation",
                "sub_theme": "Informal Outdoor Facility (Park\/Garden\/Reserve)",
                "feature_name": "Argyle Square"
            }
        }, {
            "type": "Feature",
            "geometry": {
                "type": "Point",
                "coordinates": [144.965863092947, -37.8025164192523]
            },
            "properties": {
                "theme": "Leisure\/Recreation",
                "sub_theme": "Informal Outdoor Facility (Park\/Garden\/Reserve)",
                "feature_name": "Piazza Italia"
            }
        }, {
            "type": "Feature",
            "geometry": {
                "type": "Point",
                "coordinates": [144.973059252203, -37.8002735025371]
            },
            "properties": {
                "theme": "Leisure\/Recreation",
                "sub_theme": "Informal Outdoor Facility (Park\/Garden\/Reserve)",
                "feature_name": "Murchinson Square"
            }
        }, {
            "type": "Feature",
            "geometry": {
                "type": "Point",
                "coordinates": [144.958425696055, -37.8209627824685]
            },
            "properties": {
                "theme": "Purpose Built",
                "sub_theme": "Aquarium",
                "feature_name": "Melbourne Aquarium"
            }
        }, {
            "type": "Feature",
            "geometry": {
                "type": "Point",
                "coordinates": [144.979720306309, -37.8242456858593]
            },
            "properties": {
                "theme": "Leisure\/Recreation",
                "sub_theme": "Major Sports & Recreation Facility",
                "feature_name": "Westpac Centre"
            }
        }, {
            "type": "Feature",
            "geometry": {
                "type": "Point",
                "coordinates": [144.964526842767, -37.7995065904416]
            },
            "properties": {
                "theme": "Health Services",
                "sub_theme": "Public Hospital",
                "feature_name": "Royal Dental Hospital"
            }
        }, {
            "type": "Feature",
            "geometry": {
                "type": "Point",
                "coordinates": [144.947291011905, -37.8232052384507]
            },
            "properties": {
                "theme": "Transport",
                "sub_theme": "Bridge",
                "feature_name": "Webb Bridge"
            }
        }, {
            "type": "Feature",
            "geometry": {
                "type": "Point",
                "coordinates": [144.985089428348, -37.8315364518803]
            },
            "properties": {
                "theme": "Education Centre",
                "sub_theme": "School - Primary and Secondary Education",
                "feature_name": "Melbourne Girls Grammar School"
            }
        }, {
            "type": "Feature",
            "geometry": {
                "type": "Point",
                "coordinates": [144.963855087868, -37.8135911985281]
            },
            "properties": {
                "theme": "Retail",
                "sub_theme": "Department Store",
                "feature_name": "Myer"
            }
        }, {
            "type": "Feature",
            "geometry": {
                "type": "Point",
                "coordinates": [144.964373486798, -37.8133127260638]
            },
            "properties": {
                "theme": "Retail",
                "sub_theme": "Department Store",
                "feature_name": "David Jones"
            }
        }, {
            "type": "Feature",
            "geometry": {
                "type": "Point",
                "coordinates": [144.984435746587, -37.811896809802]
            },
            "properties": {
                "theme": "Health Services",
                "sub_theme": "Medical Services",
                "feature_name": "Mercy Private Hospital"
            }
        }, {
            "type": "Feature",
            "geometry": {
                "type": "Point",
                "coordinates": [144.961673719242, -37.8161580666029]
            },
            "properties": {
                "theme": "Mixed Use",
                "sub_theme": "Retail\/Office\/Carpark",
                "feature_name": "ANZ 'Gothic' Bank"
            }
        }
    ]
}
