{"type":"FeatureCollection","features":[{"type":"Feature","geometry":{"type":"Point","coordinates":[144.95230710206781,-37.781179805556867]},"properties":{"STOP_NAME":"Royal Park Railway Station (Parkville)"}},{"type":"Feature","geometry":{"type":"Point","coordinates":[144.93932910356602,-37.788126814713806]},"properties":{"STOP_NAME":"Flemington Bridge Railway Station (North Melbourne)"}},{"type":"Feature","geometry":{"type":"Point","coordinates":[144.93617190344983,-37.794253834536242]},"properties":{"STOP_NAME":"Macaulay Railway Station (North Melbourne)"}},{"type":"Feature","geometry":{"type":"Point","coordinates":[144.94257594091246,-37.807405805054792]},"properties":{"STOP_NAME":"North Melbourne Railway Station (West Melbourne)"}},{"type":"Feature","geometry":{"type":"Point","coordinates":[144.99542285377927,-37.788643868551937]},"properties":{"STOP_NAME":"Clifton Hill Railway Station (Clifton Hill)"}},{"type":"Feature","geometry":{"type":"Point","coordinates":[144.99445697280493,-37.799144798550834]},"properties":{"STOP_NAME":"Victoria Park Railway Station (Abbotsford)"}},{"type":"Feature","geometry":{"type":"Point","coordinates":[144.99375605234269,-37.804512848536106]},"properties":{"STOP_NAME":"Collingwood Railway Station (Abbotsford)"}},{"type":"Feature","geometry":{"type":"Point","coordinates":[144.99250577192097,-37.810384808486837]},"properties":{"STOP_NAME":"North Richmond Railway Station (Richmond)"}},{"type":"Feature","geometry":{"type":"Point","coordinates":[144.99142901161289,-37.814935838441315]},"properties":{"STOP_NAME":"West Richmond Railway Station (Richmond)"}},{"type":"Feature","geometry":{"type":"Point","coordinates":[144.98410409271295,-37.816513807949711]},"properties":{"STOP_NAME":"Jolimont-MCG Railway Station (East Melbourne)"}},{"type":"Feature","geometry":{"type":"Point","coordinates":[145.06914904783036,-37.725998833223287]},"properties":{"STOP_NAME":"Macleod Railway Station (Macleod)"}},{"type":"Feature","geometry":{"type":"Point","coordinates":[145.08379888693892,-37.710944804137874]},"properties":{"STOP_NAME":"Watsonia Railway Station (Watsonia)"}},{"type":"Feature","geometry":{"type":"Point","coordinates":[145.10825296347721,-37.70394082577895]},"properties":{"STOP_NAME":"Greensborough Railway Station (Greensborough)"}},{"type":"Feature","geometry":{"type":"Point","coordinates":[145.12152183994488,-37.715282806764556]},"properties":{"STOP_NAME":"Montmorency Railway Station (Montmorency)"}},{"type":"Feature","geometry":{"type":"Point","coordinates":[145.14782775558962,-37.713536808570133]},"properties":{"STOP_NAME":"Eltham Railway Station (Eltham)"}},{"type":"Feature","geometry":{"type":"Point","coordinates":[145.15851183815118,-37.673283859058344]},"properties":{"STOP_NAME":"Diamond Creek Railway Station (Diamond Creek)"}},{"type":"Feature","geometry":{"type":"Point","coordinates":[145.18162095518665,-37.663954820599237]},"properties":{"STOP_NAME":"Wattle Glen Railway Station (Wattle Glen)"}},{"type":"Feature","geometry":{"type":"Point","coordinates":[145.19202279608558,-37.639384821166715]},"properties":{"STOP_NAME":"Hurstbridge Railway Station (Hurstbridge)"}},{"type":"Feature","geometry":{"type":"Point","coordinates":[144.90532890084592,-37.867739822888055]},"properties":{"STOP_NAME":"Williamstown Railway Station (Williamstown)"}},{"type":"Feature","geometry":{"type":"Point","coordinates":[144.89449002314095,-37.863968822126722]},"properties":{"STOP_NAME":"Williamstown Beach Railway Station (Williamstown)"}},{"type":"Feature","geometry":{"type":"Point","coordinates":[144.88907490480312,-37.857319801717082]},"properties":{"STOP_NAME":"North Williamstown Railway Station (Williamstown)"}},{"type":"Feature","geometry":{"type":"Point","coordinates":[144.88360578733605,-37.842704791254626]},"properties":{"STOP_NAME":"Newport Railway Station (Newport)"}},{"type":"Feature","geometry":{"type":"Point","coordinates":[144.88593894823677,-37.830625801338641]},"properties":{"STOP_NAME":"Spotswood Railway Station (Spotswood)"}},{"type":"Feature","geometry":{"type":"Point","coordinates":[144.8899399891408,-37.815836821519405]},"properties":{"STOP_NAME":"Yarraville Railway Station (Yarraville)"}},{"type":"Feature","geometry":{"type":"Point","coordinates":[144.89567802888433,-37.808991871867562]},"properties":{"STOP_NAME":"Seddon Railway Station (Seddon)"}},{"type":"Feature","geometry":{"type":"Point","coordinates":[144.77418598155515,-37.701115792959449]},"properties":{"STOP_NAME":"Watergardens Railway Station (Sydenham)"}},{"type":"Feature","geometry":{"type":"Point","coordinates":[144.79374405515219,-37.729265814456305]},"properties":{"STOP_NAME":"Keilor Plains Railway Station (St Albans)"}},{"type":"Feature","geometry":{"type":"Point","coordinates":[144.80005593238656,-37.744847784979967]},"properties":{"STOP_NAME":"St Albans Railway Station (St Albans)"}},{"type":"Feature","geometry":{"type":"Point","coordinates":[144.81135380879462,-37.760053825839002]},"properties":{"STOP_NAME":"Ginifer Railway Station (St Albans)"}},{"type":"Feature","geometry":{"type":"Point","coordinates":[144.82470980458675,-37.777639826852791]},"properties":{"STOP_NAME":"Albion Railway Station (Sunshine North)"}},{"type":"Feature","geometry":{"type":"Point","coordinates":[145.0310740224389,-37.652173810148696]},"properties":{"STOP_NAME":"Epping Railway Station (Epping)"}},{"type":"Feature","geometry":{"type":"Point","coordinates":[145.01719890335048,-37.665837879281909]},"properties":{"STOP_NAME":"Lalor Railway Station (Lalor)"}},{"type":"Feature","geometry":{"type":"Point","coordinates":[145.01428506228149,-37.680324819172156]},"properties":{"STOP_NAME":"Thomastown Railway Station (Thomastown)"}},{"type":"Feature","geometry":{"type":"Point","coordinates":[145.01188998111792,-37.694856849098272]},"properties":{"STOP_NAME":"Keon Park Railway Station (Thomastown)"}},{"type":"Feature","geometry":{"type":"Point","coordinates":[145.00952298011271,-37.707884799016988]},"properties":{"STOP_NAME":"Ruthven Railway Station (Reservoir)"}},{"type":"Feature","geometry":{"type":"Point","coordinates":[145.00700189957271,-37.716871838899976]},"properties":{"STOP_NAME":"Reservoir Railway Station (Reservoir)"}},{"type":"Feature","geometry":{"type":"Point","coordinates":[145.0027790990525,-37.728389858682171]},"properties":{"STOP_NAME":"Regent Railway Station (Reservoir)"}},{"type":"Feature","geometry":{"type":"Point","coordinates":[145.00052801832666,-37.738660838591663]},"properties":{"STOP_NAME":"Preston Railway Station (Preston)"}},{"type":"Feature","geometry":{"type":"Point","coordinates":[145.00016081764201,-37.745548808609293]},"properties":{"STOP_NAME":"Bell Railway Station (Preston)"}},{"type":"Feature","geometry":{"type":"Point","coordinates":[144.99857789688511,-37.755038858559672]},"properties":{"STOP_NAME":"Thornbury Railway Station (Thornbury)"}},{"type":"Feature","geometry":{"type":"Point","coordinates":[144.99706193616447,-37.764087818511982]},"properties":{"STOP_NAME":"Croxton Railway Station (Northcote)"}},{"type":"Feature","geometry":{"type":"Point","coordinates":[144.99528281584645,-37.769851868425874]},"properties":{"STOP_NAME":"Northcote Railway Station (Northcote)"}},{"type":"Feature","geometry":{"type":"Point","coordinates":[144.99297809537839,-37.777833878317558]},"properties":{"STOP_NAME":"Merri Railway Station (Northcote)"}},{"type":"Feature","geometry":{"type":"Point","coordinates":[144.99241289489271,-37.78320381831211]},"properties":{"STOP_NAME":"Rushall Railway Station (Fitzroy North)"}},{"type":"Feature","geometry":{"type":"Point","coordinates":[144.83288396199654,-37.788522807474386]},"properties":{"STOP_NAME":"Sunshine Railway Station (Sunshine)"}},{"type":"Feature","geometry":{"type":"Point","coordinates":[144.86295079562134,-37.79923784958153]},"properties":{"STOP_NAME":"Tottenham Railway Station (West Footscray)"}},{"type":"Feature","geometry":{"type":"Point","coordinates":[144.8839909916924,-37.801789801027745]},"properties":{"STOP_NAME":"West Footscray Railway Station (West Footscray)"}},{"type":"Feature","geometry":{"type":"Point","coordinates":[144.89147791031652,-37.802491801541493]},"properties":{"STOP_NAME":"Middle Footscray Railway Station (Footscray)"}},{"type":"Feature","geometry":{"type":"Point","coordinates":[144.90320490843416,-37.801069802331078]},"properties":{"STOP_NAME":"Footscray Railway Station (Footscray)"}},{"type":"Feature","geometry":{"type":"Point","coordinates":[144.92547486473617,-37.799517843839148]},"properties":{"STOP_NAME":"South Kensington Railway Station (Kensington)"}},{"type":"Feature","geometry":{"type":"Point","coordinates":[144.91961911834409,-37.683035792717625]},"properties":{"STOP_NAME":"Broadmeadows Railway Station (Broadmeadows)"}},{"type":"Feature","geometry":{"type":"Point","coordinates":[144.91585711769051,-37.695117842536227]},"properties":{"STOP_NAME":"Jacana Railway Station (Glenroy)"}},{"type":"Feature","geometry":{"type":"Point","coordinates":[144.91722583643846,-37.704522842687901]},"properties":{"STOP_NAME":"Glenroy Railway Station (Glenroy)"}},{"type":"Feature","geometry":{"type":"Point","coordinates":[144.92152495424591,-37.71793680306417]},"properties":{"STOP_NAME":"Oak Park Railway Station (Oak Park)"}},{"type":"Feature","geometry":{"type":"Point","coordinates":[144.92820187170611,-37.73074281359893]},"properties":{"STOP_NAME":"Pascoe Vale Railway Station (Pascoe Vale)"}},{"type":"Feature","geometry":{"type":"Point","coordinates":[144.92732203047044,-37.7435778036185]},"properties":{"STOP_NAME":"Strathmore Railway Station (Strathmore)"}},{"type":"Feature","geometry":{"type":"Point","coordinates":[144.92094499118386,-37.747196793206115]},"properties":{"STOP_NAME":"Glenbervie Railway Station (Essendon)"}},{"type":"Feature","geometry":{"type":"Point","coordinates":[144.91620379105368,-37.755998792937504]},"properties":{"STOP_NAME":"Essendon Railway Station (Essendon)"}},{"type":"Feature","geometry":{"type":"Point","coordinates":[144.91916694949151,-37.765693863199516]},"properties":{"STOP_NAME":"Moonee Ponds Railway Station (Moonee Ponds)"}},{"type":"Feature","geometry":{"type":"Point","coordinates":[144.92182698799175,-37.775292813440394]},"properties":{"STOP_NAME":"Ascot Vale Railway Station (Ascot Vale)"}},{"type":"Feature","geometry":{"type":"Point","coordinates":[144.92898378544879,-37.787314834002871]},"properties":{"STOP_NAME":"Newmarket Railway Station (Flemington)"}},{"type":"Feature","geometry":{"type":"Point","coordinates":[144.93052998448167,-37.793766844148344]},"properties":{"STOP_NAME":"Kensington Railway Station (Kensington)"}},{"type":"Feature","geometry":{"type":"Point","coordinates":[145.12143506858112,-37.819208867403482]},"properties":{"STOP_NAME":"Box Hill Railway Station (Box Hill)"}},{"type":"Feature","geometry":{"type":"Point","coordinates":[144.95141681823625,-37.817922845723615]},"properties":{"STOP_NAME":"Southern Cross Railway Station (Melbourne City)"}},{"type":"Feature","geometry":{"type":"Point","coordinates":[144.93540980045361,-37.638217863516012]},"properties":{"STOP_NAME":"Roxburgh Park Railway Station (Roxburgh Park)"}},{"type":"Feature","geometry":{"type":"Point","coordinates":[144.94332584301662,-37.601803863829737]},"properties":{"STOP_NAME":"Craigieburn Railway Station (Craigieburn)"}},{"type":"Feature","geometry":{"type":"Point","coordinates":[144.92606203961012,-37.660989843019941]},"properties":{"STOP_NAME":"Coolaroo Railway Station (Coolaroo)"}},{"type":"Feature","geometry":{"type":"Point","coordinates":[145.24928074001053,-38.057327817730418]},"properties":{"STOP_NAME":"Lynbrook Railway Station (Lynbrook)"}},{"type":"Feature","geometry":{"type":"Point","coordinates":[145.43779686547938,-38.071276840997029]},"properties":{"STOP_NAME":"Cardinia Road Railway Station (Pakenham)"}},{"type":"Feature","geometry":{"type":"Point","coordinates":[145.06703801656434,-37.649145852600427]},"properties":{"STOP_NAME":"South Morang Railway Station (South Morang)"}},{"type":"Feature","geometry":{"type":"Point","coordinates":[144.7474509281094,-37.869851842198244]},"properties":{"STOP_NAME":"Williams Landing Railway Station (Williams Landing)"}},{"type":"Feature","geometry":{"type":"Point","coordinates":[145.04912690586681,-37.958742883287655]},"properties":{"STOP_NAME":"Southland Railway Station (Cheltenham)"}},{"type":"Feature","geometry":{"type":"Point","coordinates":[145.09214981278899,-37.644047804296889]},"properties":{"STOP_NAME":"Middle Gorge Railway Station (South Morang)"}},{"type":"Feature","geometry":{"type":"Point","coordinates":[145.09740185417809,-37.62298186452756]},"properties":{"STOP_NAME":"Hawkstowe Railway Station (South Morang)"}},{"type":"Feature","geometry":{"type":"Point","coordinates":[145.10089097580348,-37.602534854640609]},"properties":{"STOP_NAME":"Mernda Railway Station (Mernda)"}},{"type":"Feature","geometry":{"type":"Point","coordinates":[144.72732516267016,-37.579077859039884]},"properties":{"STOP_NAME":"Sunbury Railway Station (Sunbury)"}},{"type":"Feature","geometry":{"type":"Point","coordinates":[144.71992787884608,-37.627003848839379]},"properties":{"STOP_NAME":"Diggers Rest Railway Station (Diggers Rest)"}},{"type":"Feature","geometry":{"type":"Point","coordinates":[145.22184294946541,-38.374221867769144]},"properties":{"STOP_NAME":"Stony Point Railway Station (Crib Point)"}},{"type":"Feature","geometry":{"type":"Point","coordinates":[145.20404887352402,-38.366109896484694]},"properties":{"STOP_NAME":"Crib Point Railway Station (Crib Point)"}},{"type":"Feature","geometry":{"type":"Point","coordinates":[145.18960783743182,-38.354019835409588]},"properties":{"STOP_NAME":"Morradoo Railway Station (Crib Point)"}},{"type":"Feature","geometry":{"type":"Point","coordinates":[145.17803276133859,-38.337376854505976]},"properties":{"STOP_NAME":"Bittern Railway Station (Bittern)"}},{"type":"Feature","geometry":{"type":"Point","coordinates":[145.18598588347439,-38.305645824862687]},"properties":{"STOP_NAME":"Hastings Railway Station (Hastings)"}},{"type":"Feature","geometry":{"type":"Point","coordinates":[145.18640672851228,-38.259801894611037]},"properties":{"STOP_NAME":"Tyabb Railway Station (Tyabb)"}},{"type":"Feature","geometry":{"type":"Point","coordinates":[145.17625077414078,-38.22532883369621]},"properties":{"STOP_NAME":"Somerville Railway Station (Somerville)"}},{"type":"Feature","geometry":{"type":"Point","coordinates":[145.16053174038711,-38.194029892416268]},"properties":{"STOP_NAME":"Baxter Railway Station (Baxter)"}},{"type":"Feature","geometry":{"type":"Point","coordinates":[145.05823095516888,-37.859294863298771]},"properties":{"STOP_NAME":"Glen Iris Railway Station (Glen Iris)"}},{"type":"Feature","geometry":{"type":"Point","coordinates":[145.13953978873769,-38.152020860707111]},"properties":{"STOP_NAME":"Leawarra Railway Station (Frankston)"}},{"type":"Feature","geometry":{"type":"Point","coordinates":[145.0629570332917,-37.868943853683412]},"properties":{"STOP_NAME":"Darling Railway Station (Malvern East)"}},{"type":"Feature","geometry":{"type":"Point","coordinates":[145.06939887129866,-37.876916864175769]},"properties":{"STOP_NAME":"East Malvern Railway Station (Malvern East)"}},{"type":"Feature","geometry":{"type":"Point","coordinates":[145.09066802787626,-37.874388855624126]},"properties":{"STOP_NAME":"Holmesglen Railway Station (Malvern East)"}},{"type":"Feature","geometry":{"type":"Point","coordinates":[145.11209594423778,-37.873589837095935]},"properties":{"STOP_NAME":"Jordanville Railway Station (Mount Waverley)"}},{"type":"Feature","geometry":{"type":"Point","coordinates":[144.95565977814584,-37.811967815976537]},"properties":{"STOP_NAME":"Flagstaff Railway Station (Melbourne City)"}},{"type":"Feature","geometry":{"type":"Point","coordinates":[144.9625998571625,-37.80992580643818]},"properties":{"STOP_NAME":"Melbourne Central Railway Station (Melbourne City)"}},{"type":"Feature","geometry":{"type":"Point","coordinates":[144.97291709525027,-37.811040817150435]},"properties":{"STOP_NAME":"Parliament Railway Station (Melbourne City)"}},{"type":"Feature","geometry":{"type":"Point","coordinates":[145.35529677802433,-37.909088824208702]},"properties":{"STOP_NAME":"Belgrave Railway Station (Belgrave)"}},{"type":"Feature","geometry":{"type":"Point","coordinates":[145.34300098027194,-37.908104853342721]},"properties":{"STOP_NAME":"Tecoma Railway Station (Tecoma)"}},{"type":"Feature","geometry":{"type":"Point","coordinates":[145.33133878279239,-37.903677842500315]},"properties":{"STOP_NAME":"Upwey Railway Station (Upwey)"}},{"type":"Feature","geometry":{"type":"Point","coordinates":[145.07966175045667,-37.86830683482868]},"properties":{"STOP_NAME":"Alamein Railway Station (Ashburton)"}},{"type":"Feature","geometry":{"type":"Point","coordinates":[145.08134979085884,-37.861954814905566]},"properties":{"STOP_NAME":"Ashburton Railway Station (Ashburton)"}},{"type":"Feature","geometry":{"type":"Point","coordinates":[145.08051675214301,-37.851549824783838]},"properties":{"STOP_NAME":"Burwood Railway Station (Glen Iris)"}},{"type":"Feature","geometry":{"type":"Point","coordinates":[145.07556603383262,-37.843971824396178]},"properties":{"STOP_NAME":"Hartwell Railway Station (Camberwell)"}},{"type":"Feature","geometry":{"type":"Point","coordinates":[145.07030391565121,-37.83570280398294]},"properties":{"STOP_NAME":"Willison Railway Station (Camberwell)"}},{"type":"Feature","geometry":{"type":"Point","coordinates":[145.0696519562249,-37.831491883912044]},"properties":{"STOP_NAME":"Riversdale Railway Station (Camberwell)"}},{"type":"Feature","geometry":{"type":"Point","coordinates":[145.05870291866583,-37.826553853128537]},"properties":{"STOP_NAME":"Camberwell Railway Station (Camberwell)"}},{"type":"Feature","geometry":{"type":"Point","coordinates":[144.96696989549505,-37.818291846788689]},"properties":{"STOP_NAME":"Flinders Street Railway Station (Melbourne City)"}},{"type":"Feature","geometry":{"type":"Point","coordinates":[145.12616795208803,-38.142976849728065]},"properties":{"STOP_NAME":"Frankston Railway Station (Frankston)"}},{"type":"Feature","geometry":{"type":"Point","coordinates":[145.13530079283638,-38.121728840228101]},"properties":{"STOP_NAME":"Kananook Railway Station (Seaford)"}},{"type":"Feature","geometry":{"type":"Point","coordinates":[145.12823579603608,-38.104007839631251]},"properties":{"STOP_NAME":"Seaford Railway Station (Seaford)"}},{"type":"Feature","geometry":{"type":"Point","coordinates":[145.12283904002294,-38.076490879089384]},"properties":{"STOP_NAME":"Carrum Railway Station (Carrum)"}},{"type":"Feature","geometry":{"type":"Point","coordinates":[145.11968580207247,-38.062931838788288]},"properties":{"STOP_NAME":"Bonbeach Railway Station (Bonbeach)"}},{"type":"Feature","geometry":{"type":"Point","coordinates":[145.11604692392234,-38.051941848469554]},"properties":{"STOP_NAME":"Chelsea Railway Station (Chelsea)"}},{"type":"Feature","geometry":{"type":"Point","coordinates":[145.10854200676857,-38.038042877866289]},"properties":{"STOP_NAME":"Edithvale Railway Station (Edithvale)"}},{"type":"Feature","geometry":{"type":"Point","coordinates":[145.10215596907986,-38.027206877359269]},"properties":{"STOP_NAME":"Aspendale Railway Station (Aspendale)"}},{"type":"Feature","geometry":{"type":"Point","coordinates":[145.08766489388509,-38.006569876233634]},"properties":{"STOP_NAME":"Mordialloc Railway Station (Mordialloc)"}},{"type":"Feature","geometry":{"type":"Point","coordinates":[145.07633281734994,-37.993065825370195]},"properties":{"STOP_NAME":"Parkdale Railway Station (Parkdale)"}},{"type":"Feature","geometry":{"type":"Point","coordinates":[145.0651717405311,-37.98185182453318]},"properties":{"STOP_NAME":"Mentone Railway Station (Mentone)"}},{"type":"Feature","geometry":{"type":"Point","coordinates":[145.05456398405255,-37.966636873710023]},"properties":{"STOP_NAME":"Cheltenham Railway Station (Cheltenham)"}},{"type":"Feature","geometry":{"type":"Point","coordinates":[145.30753594815536,-37.89265887077034]},"properties":{"STOP_NAME":"Upper Ferntree Gully Railway Station (Upper Ferntree Gully)"}},{"type":"Feature","geometry":{"type":"Point","coordinates":[145.29525671150773,-37.881684899846043]},"properties":{"STOP_NAME":"Ferntree Gully Railway Station (Ferntree Gully)"}},{"type":"Feature","geometry":{"type":"Point","coordinates":[145.28439083575117,-37.860438868957168]},"properties":{"STOP_NAME":"Boronia Railway Station (Boronia)"}},{"type":"Feature","geometry":{"type":"Point","coordinates":[145.26814188064509,-37.841716887709659]},"properties":{"STOP_NAME":"Bayswater Railway Station (Bayswater)"}},{"type":"Feature","geometry":{"type":"Point","coordinates":[145.24456080621871,-37.82830886598645]},"properties":{"STOP_NAME":"Heathmont Railway Station (Heathmont)"}},{"type":"Feature","geometry":{"type":"Point","coordinates":[145.04187794826348,-37.94841187272592]},"properties":{"STOP_NAME":"Highett Railway Station (Highett)"}},{"type":"Feature","geometry":{"type":"Point","coordinates":[145.16206393490074,-37.879490870583538]},"properties":{"STOP_NAME":"Glen Waverley Railway Station (Glen Waverley)"}},{"type":"Feature","geometry":{"type":"Point","coordinates":[145.14978577739586,-37.876216849714318]},"properties":{"STOP_NAME":"Syndal Railway Station (Glen Waverley)"}},{"type":"Feature","geometry":{"type":"Point","coordinates":[145.12806194128015,-37.875241878207753]},"properties":{"STOP_NAME":"Mount Waverley Railway Station (Mount Waverley)"}},{"type":"Feature","geometry":{"type":"Point","coordinates":[145.34771591641478,-37.755504902725683]},"properties":{"STOP_NAME":"Lilydale Railway Station (Lilydale)"}},{"type":"Feature","geometry":{"type":"Point","coordinates":[145.3124078392826,-37.784735820441]},"properties":{"STOP_NAME":"Mooroolbark Railway Station (Mooroolbark)"}},{"type":"Feature","geometry":{"type":"Point","coordinates":[145.28060400360647,-37.79542385829015]},"properties":{"STOP_NAME":"Croydon Railway Station (Croydon)"}},{"type":"Feature","geometry":{"type":"Point","coordinates":[145.25019696704803,-37.811954876276772]},"properties":{"STOP_NAME":"Ringwood East Railway Station (Ringwood East)"}},{"type":"Feature","geometry":{"type":"Point","coordinates":[145.48638497593302,-38.080600844475271]},"properties":{"STOP_NAME":"Pakenham Railway Station (Pakenham)"}},{"type":"Feature","geometry":{"type":"Point","coordinates":[145.41099271074415,-38.06613288908234]},"properties":{"STOP_NAME":"Officer Railway Station (Officer)"}},{"type":"Feature","geometry":{"type":"Point","coordinates":[145.36607984031278,-38.050817855839391]},"properties":{"STOP_NAME":"Beaconsfield Railway Station (Beaconsfield)"}},{"type":"Feature","geometry":{"type":"Point","coordinates":[145.34573192503498,-38.040394864351398]},"properties":{"STOP_NAME":"Berwick Railway Station (Berwick)"}},{"type":"Feature","geometry":{"type":"Point","coordinates":[145.3039748137372,-38.027795851357347]},"properties":{"STOP_NAME":"Narre Warren Railway Station (Narre Warren)"}},{"type":"Feature","geometry":{"type":"Point","coordinates":[145.26978274083132,-38.017726828912565]},"properties":{"STOP_NAME":"Hallam Railway Station (Hallam)"}},{"type":"Feature","geometry":{"type":"Point","coordinates":[145.28060468982659,-38.099523870170437]},"properties":{"STOP_NAME":"Cranbourne Railway Station (Cranbourne)"}},{"type":"Feature","geometry":{"type":"Point","coordinates":[145.26351693510844,-38.078986858854165]},"properties":{"STOP_NAME":"Merinda Park Railway Station (Cranbourne North)"}},{"type":"Feature","geometry":{"type":"Point","coordinates":[145.20973079439906,-37.989954894568058]},"properties":{"STOP_NAME":"Dandenong Railway Station (Dandenong)"}},{"type":"Feature","geometry":{"type":"Point","coordinates":[145.1916058788585,-37.978241843239189]},"properties":{"STOP_NAME":"Yarraman Railway Station (Noble Park)"}},{"type":"Feature","geometry":{"type":"Point","coordinates":[145.17633072280842,-37.966614832109371]},"properties":{"STOP_NAME":"Noble Park Railway Station (Noble Park)"}},{"type":"Feature","geometry":{"type":"Point","coordinates":[145.16283180628017,-37.956491811112713]},"properties":{"STOP_NAME":"Sandown Park Railway Station (Springvale)"}},{"type":"Feature","geometry":{"type":"Point","coordinates":[145.06819575709122,-37.825880833777099]},"properties":{"STOP_NAME":"East Camberwell Railway Station (Camberwell)"}},{"type":"Feature","geometry":{"type":"Point","coordinates":[145.08122991498249,-37.824471884665243]},"properties":{"STOP_NAME":"Canterbury Railway Station (Canterbury)"}},{"type":"Feature","geometry":{"type":"Point","coordinates":[145.08865383371412,-37.824286845175202]},"properties":{"STOP_NAME":"Chatham Railway Station (Surrey Hills)"}},{"type":"Feature","geometry":{"type":"Point","coordinates":[145.09878099197292,-37.824134835871909]},"properties":{"STOP_NAME":"Surrey Hills Railway Station (Surrey Hills)"}},{"type":"Feature","geometry":{"type":"Point","coordinates":[145.10553603131754,-37.819413886308197]},"properties":{"STOP_NAME":"Mont Albert Railway Station (Mont Albert)"}},{"type":"Feature","geometry":{"type":"Point","coordinates":[145.14070874506587,-37.820766858743724]},"properties":{"STOP_NAME":"Laburnum Railway Station (Blackburn)"}},{"type":"Feature","geometry":{"type":"Point","coordinates":[145.15001978352831,-37.820057839382706]},"properties":{"STOP_NAME":"Blackburn Railway Station (Blackburn)"}},{"type":"Feature","geometry":{"type":"Point","coordinates":[145.17524281911324,-37.820414871129508]},"properties":{"STOP_NAME":"Nunawading Railway Station (Nunawading)"}},{"type":"Feature","geometry":{"type":"Point","coordinates":[145.19289793630847,-37.818073882337721]},"properties":{"STOP_NAME":"Mitcham Railway Station (Mitcham)"}},{"type":"Feature","geometry":{"type":"Point","coordinates":[145.21355581264331,-37.818821873774624]},"properties":{"STOP_NAME":"Heatherdale Railway Station (Ringwood)"}},{"type":"Feature","geometry":{"type":"Point","coordinates":[145.2294800502321,-37.815646854860248]},"properties":{"STOP_NAME":"Ringwood Railway Station (Ringwood)"}},{"type":"Feature","geometry":{"type":"Point","coordinates":[145.04584984135266,-37.822384872219473]},"properties":{"STOP_NAME":"Auburn Railway Station (Hawthorn East)"}},{"type":"Feature","geometry":{"type":"Point","coordinates":[145.03644484308714,-37.821453821567907]},"properties":{"STOP_NAME":"Glenferrie Railway Station (Hawthorn)"}},{"type":"Feature","geometry":{"type":"Point","coordinates":[145.02290488539884,-37.821812830640994]},"properties":{"STOP_NAME":"Hawthorn Railway Station (Hawthorn)"}},{"type":"Feature","geometry":{"type":"Point","coordinates":[145.00756096743865,-37.827546819624388]},"properties":{"STOP_NAME":"Burnley Railway Station (Burnley)"}},{"type":"Feature","geometry":{"type":"Point","coordinates":[144.99707200938676,-37.826386808898619]},"properties":{"STOP_NAME":"East Richmond Railway Station (Richmond)"}},{"type":"Feature","geometry":{"type":"Point","coordinates":[144.99017009083866,-37.824060848411605]},"properties":{"STOP_NAME":"Richmond Railway Station (Richmond)"}},{"type":"Feature","geometry":{"type":"Point","coordinates":[145.02264100404415,-37.834658800702414]},"properties":{"STOP_NAME":"Heyington Railway Station (Toorak)"}},{"type":"Feature","geometry":{"type":"Point","coordinates":[145.03355800157394,-37.839915881484025]},"properties":{"STOP_NAME":"Kooyong Railway Station (Kooyong)"}},{"type":"Feature","geometry":{"type":"Point","coordinates":[145.04174007912187,-37.849352832104188]},"properties":{"STOP_NAME":"Tooronga Railway Station (Malvern)"}},{"type":"Feature","geometry":{"type":"Point","coordinates":[145.05166095697004,-37.853265852809905]},"properties":{"STOP_NAME":"Gardiner Railway Station (Glen Iris)"}},{"type":"Feature","geometry":{"type":"Point","coordinates":[145.1534577686862,-37.94949584042125]},"properties":{"STOP_NAME":"Springvale Railway Station (Springvale)"}},{"type":"Feature","geometry":{"type":"Point","coordinates":[145.13883889244852,-37.938477859342925]},"properties":{"STOP_NAME":"Westall Railway Station (Clayton South)"}},{"type":"Feature","geometry":{"type":"Point","coordinates":[145.12053973715658,-37.924669877994305]},"properties":{"STOP_NAME":"Clayton Railway Station (Clayton)"}},{"type":"Feature","geometry":{"type":"Point","coordinates":[145.10236982182283,-37.911003826656767]},"properties":{"STOP_NAME":"Huntingdale Railway Station (Oakleigh)"}},{"type":"Feature","geometry":{"type":"Point","coordinates":[145.0883139854383,-37.900358805622602]},"properties":{"STOP_NAME":"Oakleigh Railway Station (Oakleigh)"}},{"type":"Feature","geometry":{"type":"Point","coordinates":[145.07764106789818,-37.894867814853882]},"properties":{"STOP_NAME":"Hughesdale Railway Station (Hughesdale)"}},{"type":"Feature","geometry":{"type":"Point","coordinates":[145.06738107019694,-37.890184844118991]},"properties":{"STOP_NAME":"Murrumbeena Railway Station (Murrumbeena)"}},{"type":"Feature","geometry":{"type":"Point","coordinates":[145.0585808721616,-37.88622781348942]},"properties":{"STOP_NAME":"Carnegie Railway Station (Carnegie)"}},{"type":"Feature","geometry":{"type":"Point","coordinates":[144.66112401999899,-37.899364816571172]},"properties":{"STOP_NAME":"Werribee Railway Station (Werribee)"}},{"type":"Feature","geometry":{"type":"Point","coordinates":[144.70096089477363,-37.883262829148819]},"properties":{"STOP_NAME":"Hoppers Crossing Railway Station (Hoppers Crossing)"}},{"type":"Feature","geometry":{"type":"Point","coordinates":[144.772622844388,-37.86368081385973]},"properties":{"STOP_NAME":"Laverton Railway Station (Laverton)"}},{"type":"Feature","geometry":{"type":"Point","coordinates":[144.76081484613144,-37.866592853080149]},"properties":{"STOP_NAME":"Aircraft Railway Station (Laverton)"}},{"type":"Feature","geometry":{"type":"Point","coordinates":[144.81350011711177,-37.865149796634398]},"properties":{"STOP_NAME":"Westona Railway Station (Altona)"}},{"type":"Feature","geometry":{"type":"Point","coordinates":[144.8296507940855,-37.867134837741204]},"properties":{"STOP_NAME":"Altona Railway Station (Altona)"}},{"type":"Feature","geometry":{"type":"Point","coordinates":[144.84096379204092,-37.867828828512835]},"properties":{"STOP_NAME":"Seaholme Railway Station (Seaholme)"}},{"type":"Feature","geometry":{"type":"Point","coordinates":[144.99923885399136,-37.780607858763489]},"properties":{"STOP_NAME":"Westgarth Railway Station (Northcote)"}},{"type":"Feature","geometry":{"type":"Point","coordinates":[145.00824785258533,-37.779173799371847]},"properties":{"STOP_NAME":"Dennis Railway Station (Northcote)"}},{"type":"Feature","geometry":{"type":"Point","coordinates":[145.01691089108519,-37.779157869965587]},"properties":{"STOP_NAME":"Fairfield Railway Station (Fairfield)"}},{"type":"Feature","geometry":{"type":"Point","coordinates":[145.03126084868222,-37.778380810945187]},"properties":{"STOP_NAME":"Alphington Railway Station (Alphington)"}},{"type":"Feature","geometry":{"type":"Point","coordinates":[145.03848208780445,-37.774949831419598]},"properties":{"STOP_NAME":"Darebin Railway Station (Ivanhoe)"}},{"type":"Feature","geometry":{"type":"Point","coordinates":[145.0454308072614,-37.768883831859178]},"properties":{"STOP_NAME":"Ivanhoe Railway Station (Ivanhoe)"}},{"type":"Feature","geometry":{"type":"Point","coordinates":[145.05394876636478,-37.763572842411463]},"properties":{"STOP_NAME":"Eaglemont Railway Station (Eaglemont)"}},{"type":"Feature","geometry":{"type":"Point","coordinates":[145.06069192590701,-37.757059812834527]},"properties":{"STOP_NAME":"Heidelberg Railway Station (Heidelberg)"}},{"type":"Feature","geometry":{"type":"Point","coordinates":[145.06614592651079,-37.742865823121427]},"properties":{"STOP_NAME":"Rosanna Railway Station (Rosanna)"}},{"type":"Feature","geometry":{"type":"Point","coordinates":[145.03674399069956,-37.934339832286533]},"properties":{"STOP_NAME":"Moorabbin Railway Station (Moorabbin)"}},{"type":"Feature","geometry":{"type":"Point","coordinates":[145.03547607192777,-37.925135802142592]},"properties":{"STOP_NAME":"Patterson Railway Station (Bentleigh)"}},{"type":"Feature","geometry":{"type":"Point","coordinates":[145.03700103250702,-37.917411822199611]},"properties":{"STOP_NAME":"Bentleigh Railway Station (Bentleigh)"}},{"type":"Feature","geometry":{"type":"Point","coordinates":[145.03830495305834,-37.910295882245165]},"properties":{"STOP_NAME":"McKinnon Railway Station (Mckinnon)"}},{"type":"Feature","geometry":{"type":"Point","coordinates":[145.03961895360572,-37.903198842291523]},"properties":{"STOP_NAME":"Ormond Railway Station (Ormond)"}},{"type":"Feature","geometry":{"type":"Point","coordinates":[145.04222895462692,-37.889705862387395]},"properties":{"STOP_NAME":"Glenhuntly Railway Station (Glen Huntly)"}},{"type":"Feature","geometry":{"type":"Point","coordinates":[145.04253099591469,-37.87744588233231]},"properties":{"STOP_NAME":"Caulfield Railway Station (Caulfield East)"}},{"type":"Feature","geometry":{"type":"Point","coordinates":[145.02929991944049,-37.866239801354659]},"properties":{"STOP_NAME":"Malvern Railway Station (Malvern)"}},{"type":"Feature","geometry":{"type":"Point","coordinates":[145.01933188224353,-37.856438800610206]},"properties":{"STOP_NAME":"Armadale Railway Station (Armadale)"}},{"type":"Feature","geometry":{"type":"Point","coordinates":[145.01391496380455,-37.850760880203659]},"properties":{"STOP_NAME":"Toorak Railway Station (Armadale)"}},{"type":"Feature","geometry":{"type":"Point","coordinates":[145.00214800652381,-37.844577879358923]},"properties":{"STOP_NAME":"Hawksburn Railway Station (South Yarra)"}},{"type":"Feature","geometry":{"type":"Point","coordinates":[145.00456683456449,-37.95031681017808]},"properties":{"STOP_NAME":"Sandringham Railway Station (Sandringham)"}},{"type":"Feature","geometry":{"type":"Point","coordinates":[145.00147695645325,-37.93796385989009]},"properties":{"STOP_NAME":"Hampton Railway Station (Hampton)"}},{"type":"Feature","geometry":{"type":"Point","coordinates":[144.98915991985581,-37.926470858975605]},"properties":{"STOP_NAME":"Brighton Beach Railway Station (Brighton)"}},{"type":"Feature","geometry":{"type":"Point","coordinates":[144.99630483984888,-37.915120869394748]},"properties":{"STOP_NAME":"Middle Brighton Railway Station (Brighton)"}},{"type":"Feature","geometry":{"type":"Point","coordinates":[145.00261095986843,-37.90487382976346]},"properties":{"STOP_NAME":"North Brighton Railway Station (Brighton)"}},{"type":"Feature","geometry":{"type":"Point","coordinates":[145.00417408049015,-37.896681849819942]},"properties":{"STOP_NAME":"Gardenvale Railway Station (Brighton)"}},{"type":"Feature","geometry":{"type":"Point","coordinates":[145.00090384236231,-37.884739839522041]},"properties":{"STOP_NAME":"Elsternwick Railway Station (Elsternwick)"}},{"type":"Feature","geometry":{"type":"Point","coordinates":[144.99524284431206,-37.87589283907959]},"properties":{"STOP_NAME":"Ripponlea Railway Station (Ripponlea)"}},{"type":"Feature","geometry":{"type":"Point","coordinates":[144.99351808531162,-37.869474848921804]},"properties":{"STOP_NAME":"Balaclava Railway Station (Balaclava)"}},{"type":"Feature","geometry":{"type":"Point","coordinates":[144.99204100703219,-37.856039828737593]},"properties":{"STOP_NAME":"Windsor Railway Station (Windsor)"}},{"type":"Feature","geometry":{"type":"Point","coordinates":[144.9898658881221,-37.849504838548228]},"properties":{"STOP_NAME":"Prahran Railway Station (Prahran)"}},{"type":"Feature","geometry":{"type":"Point","coordinates":[144.99234808889571,-37.838435828649715]},"properties":{"STOP_NAME":"South Yarra Railway Station (South Yarra)"}},{"type":"Feature","geometry":{"type":"Point","coordinates":[144.9467458354903,-37.66606485446281]},"properties":{"STOP_NAME":"Upfield Railway Station (Coolaroo)"}},{"type":"Feature","geometry":{"type":"Point","coordinates":[144.95887998965185,-37.700664815506542]},"properties":{"STOP_NAME":"Gowrie Railway Station (Glenroy)"}},{"type":"Feature","geometry":{"type":"Point","coordinates":[144.96055110785338,-37.714607795707259]},"properties":{"STOP_NAME":"Fawkner Railway Station (Fawkner)"}},{"type":"Feature","geometry":{"type":"Point","coordinates":[144.96132006703672,-37.720920845798993]},"properties":{"STOP_NAME":"Merlynston Railway Station (Coburg North)"}},{"type":"Feature","geometry":{"type":"Point","coordinates":[144.96284682540858,-37.733509865981446]},"properties":{"STOP_NAME":"Batman Railway Station (Coburg North)"}},{"type":"Feature","geometry":{"type":"Point","coordinates":[144.96334182436684,-37.742331846070009]},"properties":{"STOP_NAME":"Coburg Railway Station (Coburg)"}},{"type":"Feature","geometry":{"type":"Point","coordinates":[144.96182910331299,-37.754471856041896]},"properties":{"STOP_NAME":"Moreland Railway Station (Coburg)"}},{"type":"Feature","geometry":{"type":"Point","coordinates":[144.96069006277776,-37.761228876005951]},"properties":{"STOP_NAME":"Anstey Railway Station (Brunswick)"}},{"type":"Feature","geometry":{"type":"Point","coordinates":[144.95959278226533,-37.767707795971141]},"properties":{"STOP_NAME":"Brunswick Railway Station (Brunswick)"}},{"type":"Feature","geometry":{"type":"Point","coordinates":[144.95872302162815,-37.774973855956738]},"properties":{"STOP_NAME":"Jewell Railway Station (Brunswick)"}}]}